~Version Information
 VERS. 2.0                             : CWLS Log ASCII Standard - Version 2.0
 WRAP. NO                              : One line per depth step
 PROG.                                 : SeisWare LAS Export
#
~Well Information
#MNEM.UNIT     DATA                    : DESCRIPTION
#----.----     ---------               : -----------------
 STRT.F          80.0000               : Start Depth
 STOP.F        1000.0000               : End Depth
 STEP.F           0.5000               : Depth Increment
 NULL.          -999.250               : Null Value
 WELL.         64-S-11                 : Common Well Name
 UWI .         490250634800            : Unique Well ID
 FLD .         Teapot Dome             : Field Name
 PROV.         Wyoming                 : Province / State
#
~Parameter Information
#MNEM.UNIT     VALUE                   : DESCRIPTION
#----.----     ---------               : -----------------
 EREF.F        5221.0000               : Elevation of Depth Reference
 DREF.         KB                      : Depth Reference
 EGL .F        5216.0000               : Ground Level Elevation
 EKB .F        5221.0000               : Kelly Bushing Elevation
#
~Other Information
# SeisWare LAS Export
#
~Curve Information
#MNEM.UNIT        API CODE             : CURVE DESCRIPTION
#----.----        ---------            : -----------------
 DEPT.F                                : Depth
 SPR .MV                               : SPONTANEOUS POTENTIAL FROM RES.
 DT  .US/F                             : INTERVAL TRANSIT TIME
 ILD .OHMM                             : INDUCTION LOG DEEP
 CALS.IN                               : CALIPER FROM SONIC LOG
 ASN .OHMM                             : AMPLIFIED SHORT NORMAL 16"
 GR  .GAPI                             : GAMMA RAY
 CILD.MMHO                             : CONDUCTIVITY INDUCTION LOG DEEP
#
~A     DEPT         SPR          DT         ILD        CALS         ASN          GR        CILD
# ...
   794.0000    -37.5340    109.6586      4.9350      6.7416      5.9496     96.6588    190.1344
   794.5000    -37.5296    106.2606      5.1605      6.7414      6.2623     98.4730    182.5855
   795.0000    -37.5253    103.6178      5.3859      6.7413      6.3819    102.5530    175.0367
   795.5000    -37.5210    102.0325      5.7597      6.7411      6.5164    100.5908    168.9961
   796.0000    -37.3711    103.8459      6.0594      6.7410      6.6657     97.2690    163.7097
   796.5000    -37.3669    103.3180      6.2876      6.7408      6.8167    103.0107    159.9316
   797.0000    -37.3626    103.4698      6.3620      6.7407      6.9384    100.5949    156.1535
   797.5000    -37.2137    104.3014      6.3656      6.7405      7.0544    103.9201    153.8836
   798.0000    -37.0647    105.1329      6.3685      6.7404      7.1740    103.9216    152.3680
   798.5000    -37.0605    103.6231      6.4455      6.7402      7.3084    101.8083    151.6064
   799.0000    -36.9115    103.2462      6.3735      6.7401      7.3835     92.8974    150.8446
   799.5000    -37.0521    103.2470      6.3772      6.7399      7.4585     89.4242    150.8357
   800.0000    -37.0478    103.1722      6.4444      6.7398      7.5116     96.9790    150.8034
   800.5000    -37.0478    103.0927      6.4459      6.7396      7.5608     88.0681    150.4750
   801.0000    -37.0478    102.8621      6.4474      6.7439      7.5812     90.4865    150.1465
   801.5000    -36.9030    102.4973      6.4492      6.7487      7.5678     91.9986    150.8296
   802.0000    -36.9030    102.5743      6.4506      6.7534      7.5247     95.4058    151.5837
   802.5000    -36.9030    102.8024      6.4521      6.7581      7.4667     99.8039    152.3379
   803.0000    -36.7583    103.2570      6.3054      6.7738      7.4236    102.7613    153.0920
   803.5000    -36.9030    103.8627      6.3069      6.7744      7.3805    100.2033    153.0920
   804.0000    -36.9030    104.2418      6.3083      6.7750      7.3522     97.3012    153.0920
   804.5000    -36.9030    104.3185      6.3098      6.7603      7.2942    100.6042    153.0920
   805.0000    -36.9030    104.2444      6.3853      6.7610      7.3264    100.9063    152.3379
   805.5000    -36.9030    104.5484      6.4608      6.7616      7.4176    108.3082    151.5837
   806.0000    -36.9030    104.6254      6.5364      6.7622      7.4621    103.0211    152.3379
   806.5000    -37.0478    104.7780      6.4638      6.7628      7.4338     96.8278    155.3544
   807.0000    -37.0478    104.7794      6.2430      6.7786      7.3613     98.1873    162.1418
   807.5000    -37.0478    104.6223      5.8000      6.7792      7.2736    101.3595    173.4540
   808.0000    -37.0478    104.2407      5.3521      6.7798      7.1711    105.7402    190.0452
   808.5000    -36.7583    103.7269      4.9783      6.7804      6.8308     94.5619    195.3389
   809.0000    -36.4689    104.4836      4.6933      6.7810      6.4608    101.8127    196.8326
   809.5000    -36.6136    106.9776      4.6951      6.7967      6.1353    101.0574    197.5867
   810.0000    -36.9030    109.0183      4.7706      6.7822      5.9436     98.4894    199.0950
   810.5000    -37.6266    109.2464      5.0684      6.7828      5.8114     99.3958    200.6033
   811.0000    -37.1925    109.6255      5.1439      6.7834      5.6197     94.2598    202.8658
   811.5000    -36.7583    110.2312      4.9968      6.7840      5.6168     94.8641    204.3741
   812.0000    -36.4689    110.7610      4.8502      6.7997      6.3213     86.7069    203.6199
   812.5000    -36.4689    105.5514      4.7775      6.8003      6.4264     85.9517    202.1116
   813.0000    -36.6136    105.6284      4.9275      6.8010      6.3514     82.4773    199.8492
   813.5000    -36.6136    106.0076      5.0771      6.8016      6.2068     83.2326    199.8492
   814.0000    -36.7583    109.3607      5.1526      6.8021      5.9705     79.7583    199.8492
   814.5000    -36.9030    111.6093      5.0060      6.8028      5.6154     74.3202    199.8492
   815.0000    -36.9030    111.4504      4.9333      6.8033      6.0032     70.3927    199.0950
   815.5000    -37.1925    110.9988      5.0138      6.8040      6.0489     67.3716    198.3409
   816.0000    -37.3372    110.3205      5.1585      6.8046      5.7829     74.9245    193.0618
   816.5000    -37.3372    109.2646      5.4566      6.8052      6.4533     82.4773    186.2745
   817.0000    -37.1925    107.3023      5.6803      6.8058      6.7371     90.9366    177.1051
   817.5000    -37.0478    103.0742      5.9780      6.8065      6.8426     93.8066    167.1942
   818.0000    -36.9030    102.6980      6.2017      6.8070      6.9035     97.0511    154.9925
   818.5000    -36.7583    102.4729      6.3509      6.8077      6.9495     89.7281    159.1252
   819.0000    -36.9030    102.0968      5.6120      6.8082      6.9658     93.2024    166.6667
   819.5000    -36.9030    101.7961      5.3172      6.8089      6.9673     95.1662    181.7496
   820.0000    -36.9030    101.4955      5.0220      6.8094      6.9183     93.8066    199.8492
   820.5000    -36.7583    101.2704      4.7271      6.8251      6.6140     93.2947    209.6531
   821.0000    -36.7583    101.7492      4.5064      6.8257      6.2885     98.9426    217.1946
   821.5000    -36.6136    105.1373      4.4341      6.8566      5.8145     96.5241    220.9653
   822.0000    -36.3242    108.2235      4.4356      6.8572      5.4590     92.4471    222.4736
   822.5000    -36.0347    107.3186      4.4370      6.8578      5.5945    100.8536    223.2278
   823.0000    -35.7453    109.7374      4.4434      6.8432      5.3434    101.8127    224.7361
   823.5000    -35.6006    110.2672      4.5980      6.8289      5.0622     89.9035    224.8721
   824.0000    -35.6006    108.2298      4.8862      6.8295      5.8367     74.6711    219.4570
   824.5000    -35.7453    104.9835      5.1840      6.8301      6.2839     70.0256    197.5867
   825.0000    -35.7453    102.0394      5.4817      6.8154      6.4637     62.3867    184.0121
   825.5000    -35.7453    102.3426      5.8536      6.8161      6.7029     66.2493    168.7482
   826.0000    -35.6006    100.6829      6.2995      6.8167      7.2838     78.8520    155.7468
   826.5000    -35.6006     99.5514      6.6713      6.8173      7.5986     77.0393    147.0588
   827.0000    -35.7453     99.0242      6.8950      6.8179      7.7673     75.3776    144.7964
   827.5000    -35.8900     98.4945      7.1186      6.8185      7.9354     74.7734    143.2881
   828.0000    -36.0347     98.3474      7.1942      6.8191      8.0924     79.0030    141.7798
   828.5000    -36.0347     98.1707      7.1956      6.8197      8.2127     71.7523    140.2715
   829.0000    -36.0347     97.6710      7.1971      6.8203      8.3182     70.3927    138.7632
   829.5000    -36.0347     97.2193      7.2726      6.8058      8.4237     73.7160    137.2549
   830.0000    -36.0347     96.7676      7.2741      6.8064      8.5440     68.8822    134.9925
   830.5000    -36.0347     96.4670      7.3545      6.7767      8.6346     71.6012    132.7300
   831.0000    -35.8900     96.2419      7.4350      6.7773      8.6955     77.6435    131.9759
   831.5000    -35.6006     95.8657      7.5751      6.7628      8.7564     81.4199    130.4676
   832.0000    -35.4559     98.1330      7.5025      6.6877      8.8024     71.9033    129.7134
   832.5000    -35.6006     97.0016      7.4299      6.5971      8.8485     74.3202    128.9593
   833.0000    -35.6006     96.9155      7.5054      6.5528      8.8797     79.6073    129.7134
   833.5000    -35.6006     97.3067      7.6550      6.5534      8.8811     72.2054    129.7134
   834.0000    -35.6006     97.5347      7.8046      6.5389      8.8042     78.0967    129.6529
   834.5000    -35.4559     96.8429      8.0283      6.5396      8.6885     78.5499    127.4510
   835.0000    -35.4559     95.7502      8.3260      6.5402      8.7076     82.7795    125.9427
   835.5000    -35.3111     93.5365      8.6238      6.5255      8.9319     79.6073    121.4178
