~Version Information
 VERS. 2.0                             : CWLS Log ASCII Standard - Version 2.0
 WRAP. NO                              : One line per depth step
 PROG.                                 : SeisWare LAS Export
#
~Well Information
#MNEM.UNIT     DATA                    : DESCRIPTION
#----.----     ---------               : -----------------
 STRT.F          80.0000               : Start Depth
 STOP.F        1000.0000               : End Depth
 STEP.F           0.5000               : Depth Increment
 NULL.          -999.250               : Null Value
 WELL.         64-S-11                 : Common Well Name
 UWI .         490250634800            : Unique Well ID
 FLD .         Teapot Dome             : Field Name
 PROV.         Wyoming                 : Province / State
#
~Parameter Information
#MNEM.UNIT     VALUE                   : DESCRIPTION
#----.----     ---------               : -----------------
 EREF.F        5221.0000               : Elevation of Depth Reference
 DREF.         KB                      : Depth Reference
 EGL .F        5216.0000               : Ground Level Elevation
 EKB .F        5221.0000               : Kelly Bushing Elevation
#
~Other Information
# SeisWare LAS Export
#
~Curve Information
#MNEM.UNIT        API CODE             : CURVE DESCRIPTION
#----.----        ---------            : -----------------
 DEPT.F                                : Depth
 SPR .MV                               : SPONTANEOUS POTENTIAL FROM RES.
 DT  .US/F                             : INTERVAL TRANSIT TIME
 ILD .OHMM                             : INDUCTION LOG DEEP
 CALS.IN                               : CALIPER FROM SONIC LOG
 ASN .OHMM                             : AMPLIFIED SHORT NORMAL 16"
 GR  .GAPI                             : GAMMA RAY
 CILD.MMHO                             : CONDUCTIVITY INDUCTION LOG DEEP
#
~A     DEPT         SPR          DT         ILD        CALS         ASN          GR        CILD
# ...
   542.0000    -55.7548    106.0938      5.5046      6.8003      6.5608     69.7641    172.0394
   542.5000    -55.7436    106.7751      5.5855      6.8003      6.5467     73.3914    171.2214
   543.0000    -55.5876    107.1542      5.6651      6.8003      6.5331     70.2207    168.9078
   543.5000    -55.5764    107.3064      5.8192      6.8003      6.5648     66.4454    165.8401
   544.0000    -55.4205    107.0817      5.8987      6.8003      6.6841     64.6346    162.0182
   544.5000    -55.2646    106.7055      6.0565      6.8003      6.8637     63.8808    158.9505
   545.0000    -55.1085    106.1783      6.2195      6.8003      7.0135     63.1270    155.8573
   545.5000    -54.9522    105.6511      6.4368      6.8003      7.1187     53.9140    153.4440
   546.0000    -54.7940    105.1239      6.5164      6.8003      7.2090     49.2328    150.4887
   546.5000    -54.7828    104.4457      6.6705      6.8003      7.2993     48.4786    148.1751
   547.0000    -54.7715    104.2205      6.8991      6.8003      7.3747     57.0908    146.6157
   547.5000    -54.9078    104.5997      7.0532      6.8003      7.4353     60.7177    145.8104
   548.0000    -55.0414    103.3173      7.1328      6.8003      7.4363     62.3808    143.4969
   548.5000    -55.1723    102.4879      7.2869      6.8154      7.4375     64.0439    142.6916
   549.0000    -55.3056    102.4894      7.3666      6.8154      7.4385     66.1603    140.3771
   549.5000    -55.2915    102.5665      7.4473      6.8154      7.4544     68.4272    138.8058
   550.0000    -55.2762    102.2659      7.4511      6.8306      7.5387     65.9031    138.0133
   550.5000    -55.1910    101.6463      7.3671      6.8254      7.7790     65.5603    139.5725
   551.0000    -55.1163    101.2844      7.1680      6.8201      7.9637     69.0365    141.6651
   551.5000    -54.9618    100.9226      7.0255      6.8149      7.9466     69.7929    143.8766
   552.0000    -54.9521    100.5440      6.8813      6.8096      7.8026     60.5803    146.8422
   552.5000    -54.7974    100.6233      6.7403      6.8044      7.6698     65.1135    148.3123
   553.0000    -54.6407    101.8355      6.6722      6.7994      7.4626     67.0787    149.7569
   553.5000    -54.3415    103.0477      6.6042      6.7992      7.2852     66.1735    151.2142
   554.0000    -54.1870    103.7312      6.4616      6.7839      7.1822     67.9877    153.4257
   554.5000    -53.7431    104.4146      6.3207      6.7838      7.1087     66.3276    154.8830
   555.0000    -53.4439    104.7230      6.2526      6.7836      7.0803     67.8400    156.3276
   555.5000    -53.1447    105.0318      6.1100      6.7835      7.0371     69.2010    156.2767
   556.0000    -53.1346    105.1813      6.0417      6.7833      7.0382     76.6043    156.2257
   556.5000    -53.1227    105.1094      6.0484      6.7681      7.0394     77.2097    156.9306
   557.0000    -52.9682    105.2779      6.0551      6.7679      7.0405     69.6587    156.8778
   557.5000    -52.8137    105.6465      6.1375      6.7678      7.0417     66.7897    156.0709
   558.0000    -52.8040    105.6502      6.2185      6.7676      7.0428     73.4381    156.0091
   558.5000    -52.6495    105.5020      6.3740      6.7675      7.0443     79.7840    155.2040
   559.0000    -52.4949    105.5822      6.4549      6.7673      7.0603     86.1300    155.1530
   559.5000    -52.3381    105.6615      6.6104      6.7672      7.0912     90.0590    154.3479
   560.0000    -52.3283    105.7407      6.6915      6.7670      7.1370     84.6224    154.2969
   560.5000    -52.1738    105.8200      6.8485      6.7669      7.1530     72.5393    154.2459
   561.0000    -52.0194    105.9748      6.9295      6.7819      7.0947     67.4048    154.1931
   561.5000    -52.0096    106.4317      7.0105      6.7817      7.0660     67.0864    153.3772
   562.0000    -51.9998    107.1152      7.0169      6.7967      7.0972     63.3293    153.3262
   562.5000    -52.1348    106.8924      7.0234      6.7965      7.1430     68.8825    152.5211
   563.0000    -52.1226    106.3674      7.0298      6.8115      7.1739     69.9788    152.4701
   563.5000    -51.9681    107.1265      7.0365      6.8113      7.2197     64.8444    152.4192
   564.0000    -51.9583    107.8855      7.1189      6.8112      7.2804     66.5075    152.3680
   564.5000    -51.6591    108.0393      7.1998      6.8110      7.3411     68.0199    151.5611
   565.0000    -51.5047    107.5153      7.3553      6.7958      7.3894     74.6680    150.7452
   565.5000    -51.2055    107.2915      7.4363      6.7956      7.4478     77.3885    149.1860
   566.0000    -50.9060    108.0634      7.5918      6.7803      7.5234     83.8855    147.6267
   566.5000    -50.8941    107.6776      7.6729      6.7650      7.5394     90.3824    145.3133
   567.0000    -50.7420    106.9261      7.7554      6.7497      7.5405     86.3054    143.7540
   567.5000    -51.0217    106.1745      7.8363      6.7496      7.5863     87.3643    141.4404
   568.0000    -51.1566    105.7996      7.9918      6.7494      7.7095     77.0939    139.7588
   568.5000    -51.2895    106.1838      7.9983      6.7493      7.8865     74.6781    137.5552
   569.0000    -51.5736    106.1858      8.0048      6.7491      8.0067     76.7948    137.5043
   569.5000    -51.9932    106.0312      8.0857      6.7490      8.0228     86.9171    136.6992
   570.0000    -52.1282    106.0624      8.0924      6.7488      8.0239     88.5799    135.1399
   570.5000    -52.2631    106.6005      8.1003      6.7638      8.0099     83.1437    135.0889
   571.0000    -52.5404    107.3346      8.0322      6.7637      7.9964     81.3321    135.0377
   571.5000    -52.6777    108.0181      8.0387      6.7635      7.9512     82.8446    134.9849
   572.0000    -52.9552    108.6261      7.9690      6.7482      7.8946     84.6587    135.6774
   572.5000    -53.0899    109.0830      7.8278      6.7481      7.9109     84.2071    136.3934
   573.0000    -53.2249    109.3888      7.6855      6.7631      7.9864     77.7131    135.5755
   573.5000    -53.3598    109.6947      7.5429      6.7629      8.0770     74.2403    134.7704
   574.0000    -53.4923    109.8495      7.7000      6.7628      8.1865     71.3717    133.9653
   574.5000    -53.3379    109.7022      8.0045      6.7626      8.2959     66.3883    133.1424
   575.0000    -53.3281    109.2527      8.2345      6.7776      8.4054     64.7281    131.4733
   575.5000    -53.3183    108.5767      8.4645      6.7926      8.5149     64.7297    128.5206
   576.0000    -53.2889    108.5040      8.6945      6.7924      8.6185     56.2719    125.4531
   576.5000    -53.1516    108.4322      8.8597      6.7944      8.7238     58.6904    123.1397
   577.0000    -52.9972    108.0592      9.0816      6.8073      8.8619     53.8580    119.3180
   577.5000    -52.9874    107.3077      9.2371      6.8071      8.9645     51.4426    113.9880
   578.0000    -52.8329    106.4051      9.2436      6.8221      9.1591     54.0198    110.1263
   578.5000    -52.9679    105.5025      9.1755      6.8219      9.5620     50.1848    107.0965
   579.0000    -53.1076    104.2222      9.1073      6.8218      9.6673     44.4649    108.5433
   579.5000    -53.6695    102.7909      8.9615      6.8216      9.6090     45.2185    111.5089
   580.0000    -54.0939    101.8883      8.7478      6.8215      9.0595     55.7400    112.9790
   580.5000    -54.5183    102.4208      8.5323      6.8213      8.6418     51.9817    116.6860
   581.0000    -54.5085    104.3883      8.3898      6.8212      8.5115     53.9527    119.6516
   581.5000    -54.3540    106.8089      8.1727      6.8210      8.4677     57.6483    122.6394
   582.0000    -54.3443    108.8598      7.9556      6.8057      8.4391     64.5985    126.3243
   582.5000    -54.1896    110.8460      7.8129      6.8207      8.3514     69.7357    128.5358
   583.0000    -54.0329    114.3757      7.5872      6.8206      8.2335     74.1208    131.5014
   583.5000    -53.7337    119.2481      7.4534      6.8204      8.0709     70.4939    134.4670
