~Version Information
 VERS. 2.0                             : CWLS Log ASCII Standard - Version 2.0
 WRAP. NO                              : One line per depth step
 PROG.                                 : SeisWare LAS Export
#
~Well Information
#MNEM.UNIT     DATA                    : DESCRIPTION
#----.----     ---------               : -----------------
 STRT.F          80.0000               : Start Depth
 STOP.F        1000.0000               : End Depth
 STEP.F           0.5000               : Depth Increment
 NULL.          -999.250               : Null Value
 WELL.         64-S-11                 : Common Well Name
 UWI .         490250634800            : Unique Well ID
 FLD .         Teapot Dome             : Field Name
 PROV.         Wyoming                 : Province / State
#
~Parameter Information
#MNEM.UNIT     VALUE                   : DESCRIPTION
#----.----     ---------               : -----------------
 EREF.F        5221.0000               : Elevation of Depth Reference
 DREF.         KB                      : Depth Reference
 EGL .F        5216.0000               : Ground Level Elevation
 EKB .F        5221.0000               : Kelly Bushing Elevation
#
~Other Information
# SeisWare LAS Export
#
~Curve Information
#MNEM.UNIT        API CODE             : CURVE DESCRIPTION
#----.----        ---------            : -----------------
 DEPT.F                                : Depth
 SPR .MV                               : SPONTANEOUS POTENTIAL FROM RES.
 DT  .US/F                             : INTERVAL TRANSIT TIME
 ILD .OHMM                             : INDUCTION LOG DEEP
 CALS.IN                               : CALIPER FROM SONIC LOG
 ASN .OHMM                             : AMPLIFIED SHORT NORMAL 16"
 GR  .GAPI                             : GAMMA RAY
 CILD.MMHO                             : CONDUCTIVITY INDUCTION LOG DEEP
#
~A     DEPT         SPR          DT         ILD        CALS         ASN          GR        CILD
# ...
   710.0000    -45.0935     99.9098      7.0922      6.7368      7.9912     61.7522    139.9686
   710.5000    -44.9460    100.3660      7.0944      6.7518      7.9768     65.0740    141.4622
   711.0000    -44.9432    100.6711      7.0218      6.7516      7.9923     71.1147    142.9563
   711.5000    -44.9404    100.9762      7.0245      6.7514      7.9779     72.1707    143.6953
   712.0000    -45.0822    100.9036      7.0267      6.7513      7.9488     64.4331    144.4346
   712.5000    -45.0794    100.7555      7.0289      6.7663      7.8455     63.1042    143.6652
   713.0000    -45.0766    100.6067      6.9569      6.7510      7.7421     60.8368    143.6474
   713.5000    -45.0738    100.4586      6.9596      6.7508      7.7278     57.8141    143.6327
   714.0000    -44.9262    100.3112      7.0359      6.7507      7.7601     65.5166    143.6180
   714.5000    -44.7786    100.1631      7.0381      6.7505      7.8925     68.8383    143.6032
   715.0000    -44.4857    100.1662      6.9656      6.7504      7.9525     67.9305    143.5885
   715.5000    -44.6283    100.2447      6.9683      6.7654      7.9531     68.5332    142.8197
   716.0000    -44.4801    100.4018      7.0446      6.7652      7.9537     70.8157    142.8049
   716.5000    -44.3325    100.5529      7.0468      6.7499      7.9543     72.1555    142.0361
   717.0000    -44.1850    100.6314      7.0490      6.7498      7.9549     67.1691    142.0211
   717.5000    -43.8927    100.7106      7.0512      6.7496      7.9554     69.4335    142.0061
   718.0000    -43.6004    100.7135      7.0534      6.7494      7.9263     69.8852    141.9883
   718.5000    -43.5976    100.6410      7.0560      6.7493      7.9115     71.5453    141.9735
   719.0000    -43.5948    100.5677      7.0582      6.7491      7.8641     65.3504    141.9588
   719.5000    -43.5919    100.4952      7.0604      6.7490      7.7499     69.8806    141.9441
   720.0000    -43.5884    100.3471      7.0626      6.7488      7.7206     71.2386    142.6872
   720.5000    -43.7310    100.1242      7.0647      6.7487      7.8105     67.9048    142.6688
   721.0000    -43.7275     99.9006      7.1406      6.7485      7.7665     67.3081    142.6541
   721.5000    -43.7247     99.7518      7.0690      6.7484      7.7372     63.0770    143.3936
   722.0000    -43.7219     99.5289      6.9229      6.7482      7.7676     65.0393    144.1330
   722.5000    -43.7190     99.5319      6.7755      6.7481      7.6642     65.4909    144.9975
   723.0000    -43.7162     99.6860      6.5479      6.7479      7.5459     74.5529    147.8706
   723.5000    -43.5687     99.9155      6.3365      6.7478      7.4256     77.5725    150.8725
   724.0000    -43.5658    100.1451      6.1161      6.7477      7.2757     72.2840    154.6285
   724.5000    -43.4183    100.4502      5.7474      6.7475      7.1318     63.9743    161.4011
   725.0000    -43.4154    100.9819      5.5270      6.7474      6.9540     65.0302    171.1903
   725.5000    -43.2672    101.6010      5.3061      6.7472      6.7614     64.8776    179.4712
   726.0000    -43.1197    102.3716      5.1599      6.7471      6.3906     67.7539    185.4897
   726.5000    -42.6827    103.4563      5.2368      6.7469      6.0940     70.7780    192.2623
   727.0000    -42.1010    104.7710      5.3131      6.7619      5.9460     70.1676    195.2642
   727.5000    -41.8087    105.3774      5.3153      6.7617      5.9020     64.8716    194.4947
   728.0000    -41.3717    104.4748      5.3175      6.7615      5.8877     71.2508    193.7228
   728.5000    -41.9478    103.5715      5.3939      6.7614      5.8883     72.5725    191.4456
   729.0000    -43.1027    102.8947      5.4707      6.7612      5.9563     72.2608    187.6602
   729.5000    -43.6788    102.1424      5.6213      6.7460      6.3948     70.8542    177.8415
   730.0000    -43.9654     99.7284      5.6976      6.7458      6.6925     65.5583    169.5312
   730.5000    -43.9618     99.5796      5.9223      6.7457      6.8417     58.9662    163.4833
   731.0000    -43.9590    100.5652      6.1471      6.7304      6.9166     54.4381    159.6978
   731.5000    -44.1016    101.0214      6.2976      6.7302      6.9469     58.5543    156.6665
   732.0000    -44.0981    101.0244      6.5223      6.7301      6.9772     58.8157    155.0930
   732.5000    -44.0952    101.0273      6.5987      6.7149      7.0223     61.9110    152.7401
   733.0000    -44.0924    101.1059      6.6750      6.7298      7.0526     64.7040    150.5855
   733.5000    -44.0896    101.1844      6.6879      6.7296      7.0983     62.6527    151.3286
   734.0000    -44.0868    101.1118      6.7541      6.7295      7.1429     60.0182    152.0644
   734.5000    -43.7945    101.1148      6.6816      6.7293      7.1882     66.1355    152.8038
   735.0000    -43.6469    101.2739      6.6843      6.7292      7.1591     68.4243    154.2974
   735.5000    -43.4987    101.5830      6.5381      6.7442      7.1299     70.7598    155.0405
   736.0000    -43.4959    101.9053      6.3919      6.7440      7.1007     68.1208    156.5304
   736.5000    -43.4931    102.4870      6.3193      6.7438      7.0568     66.5060    158.0240
   737.0000    -43.3455    102.7921      6.1737      6.7589      6.9088     66.0513    160.2717
   737.5000    -43.1980    102.9461      5.9533      6.7587      6.6865     65.3952    161.8904
   738.0000    -43.1951    102.9491      5.5836      6.7586      6.5682     63.6718    167.7801
   738.5000    -43.1923    102.9521      5.1995      6.7735      6.4945     60.1557    176.8152
   739.0000    -43.1895    102.9551      4.8476      6.7734      6.4485     61.6265    184.3419
   739.5000    -43.0419    102.9580      4.5530      6.7732      6.2878     62.1164    194.8853
   740.0000    -43.0294    103.4897      4.3321      6.7731      5.9763     65.1357    209.9535
   740.5000    -42.7468    104.2480      4.1859      6.7729      5.7392     66.6451    223.5135
   741.0000    -42.5986    105.2328      4.1139      6.7728      5.4277     65.4348    237.0734
   741.5000    -42.4511    110.0697      4.0419      6.7726      5.1905     64.8290    244.6002
   742.0000    -42.0141    112.8672      4.0446      6.7876      5.0256     56.3683    244.5853
   742.5000    -41.5771    112.7191      4.1952      6.7874      4.8425     44.2822    242.1821
   743.0000    -41.8637    112.4200      4.3457      6.7873      4.7020     49.8698    237.0109
   743.5000    -42.2950    111.8188      4.5704      6.8023      4.8958     54.5511    230.9630
   744.0000    -42.4370    110.5992      4.7953      6.8021      5.4313     58.1749    218.8819
   744.5000    -42.5788    108.3231      5.0946      6.8020      5.7885     66.6330    203.0301
   745.0000    -42.5711    104.3404      5.3935      6.8018      6.0565     59.8336    190.9490
   745.5000    -42.2836    104.0372      5.6924      6.8168      6.2651     51.0707    178.1138
   746.0000    -42.2802    103.6773      5.9172      6.8318      6.4589     61.4922    169.8034
   746.5000    -42.2774    103.3782      6.0677      6.8316      6.6229     72.0647    163.7555
   747.0000    -42.2746    103.1546      6.2182      6.8466      6.6988     67.5315    159.9193
   747.5000    -42.2717    103.0813      6.3688      6.8464      6.7776     64.0556    158.4465
   748.0000    -42.1242    103.0850      6.5193      6.8311      6.9517     52.5738    156.1662
   748.5000    -41.9766    103.0117      6.5957      6.8310      7.0563     50.1553    154.6432
   749.0000    -41.9738    102.8644      6.6721      6.8308      7.1163     41.5435    152.3661
   749.5000    -41.9710    102.6408      6.6747      6.8156      7.1911     40.3340    150.8430
   750.0000    -41.9682    102.3416      6.7565      6.8154      7.2870     47.5828    149.1011
   750.5000    -41.9194    102.0732      6.8295      6.8001      7.4169     40.4820    147.7322
   751.0000    -41.8706    101.7808      6.9052      6.8000      7.5498     54.9816    146.3633
   751.5000    -41.8219    101.4374      6.9081      6.7998      7.6397     54.3759    145.5272
