~Version Information
 VERS. 2.0                             : CWLS Log ASCII Standard - Version 2.0
 WRAP. NO                              : One line per depth step
 PROG.                                 : SeisWare LAS Export
#
~Well Information
#MNEM.UNIT     DATA                    : DESCRIPTION
#----.----     ---------               : -----------------
 STRT.F          80.0000               : Start Depth
 STOP.F        1000.0000               : End Depth
 STEP.F           0.5000               : Depth Increment
 NULL.          -999.250               : Null Value
 WELL.         64-S-11                 : Common Well Name
 UWI .         490250634800            : Unique Well ID
 FLD .         Teapot Dome             : Field Name
 PROV.         Wyoming                 : Province / State
#
~Parameter Information
#MNEM.UNIT     VALUE                   : DESCRIPTION
#----.----     ---------               : -----------------
 EREF.F        5221.0000               : Elevation of Depth Reference
 DREF.         KB                      : Depth Reference
 EGL .F        5216.0000               : Ground Level Elevation
 EKB .F        5221.0000               : Kelly Bushing Elevation
#
~Other Information
# SeisWare LAS Export
#
~Curve Information
#MNEM.UNIT        API CODE             : CURVE DESCRIPTION
#----.----        ---------            : -----------------
 DEPT.F                                : Depth
 SPR .MV                               : SPONTANEOUS POTENTIAL FROM RES.
 DT  .US/F                             : INTERVAL TRANSIT TIME
 ILD .OHMM                             : INDUCTION LOG DEEP
 CALS.IN                               : CALIPER FROM SONIC LOG
 ASN .OHMM                             : AMPLIFIED SHORT NORMAL 16"
 GR  .GAPI                             : GAMMA RAY
 CILD.MMHO                             : CONDUCTIVITY INDUCTION LOG DEEP
#
~A     DEPT         SPR          DT         ILD        CALS         ASN          GR        CILD
# ...
   668.0000    -48.8515     95.6465      9.9975      6.7356     11.0388     52.9793     98.4585
   668.5000    -48.8445     95.5718      9.9262      6.7359     11.1883     47.6953     99.1908
   669.0000    -48.8389     95.4215      9.9316      6.7513     11.3378     51.3236     98.4002
   669.5000    -48.8333     95.2711      9.8614      6.7516     11.4874     54.1967     98.3710
   670.0000    -48.5383     95.1208      9.7912      6.7671     11.5625     52.3870     98.3408
   670.5000    -48.3771     94.8950      9.7966      6.7674     11.4888     48.6136     98.3054
   671.0000    -48.0915     94.7422      9.8009      6.7677     11.4151     45.8975     99.7845
   671.5000    -47.7965     94.5906      9.8053      6.7680     11.2670     46.3537     99.7553
   672.0000    -47.6462     94.6002      9.7340      6.7683     11.1191     50.5863    100.4876
   672.5000    -47.6406     94.8980      9.5893      6.7837     10.9708     53.0062    101.2126
   673.0000    -47.4903     95.1330      9.5201      6.7840     10.8229     53.6134    102.6847
   673.5000    -47.4847     95.4370      9.2943      6.7843     10.6748     59.6587    103.4769
   674.0000    -47.3343     95.7412      9.0828      6.7846     10.3781     59.3596    105.6427
   674.5000    -47.3274     96.1095      9.0115      6.8001     10.3044     53.6224    107.1145
   675.0000    -47.1771     96.3495      8.9413      6.8003     10.2306     60.2719    107.8468
   675.5000    -47.0268     96.6536      8.9467      6.8007     10.1569     59.6170    108.5718
   676.0000    -47.0212     96.9427      8.9511      6.8009     10.0832     58.3141    108.5353
   676.5000    -46.8709     96.7924      8.9554      6.8012     10.0097     53.7854    109.2603
   677.0000    -46.5758     96.6420      8.9598      6.8015     10.0104     52.9366    109.9853
   677.5000    -46.5702     96.4918      8.9651      6.8018     10.0857     52.2808    110.7102
   678.0000    -46.4185     95.8884      8.9694      6.8021     10.1608     54.7007    110.6738
   678.5000    -46.4129     95.0583      8.9738      6.8024     10.1616     51.0791    110.6446
   679.0000    -46.2626     94.3793      8.9781      6.8027     10.1623     48.2112    110.6154
   679.5000    -45.8229     93.7001      8.9824      6.8030     10.0884     50.6311    110.5863
   680.0000    -45.3845     94.2297      8.9121      6.8033      9.9257     48.9733    111.3122
   680.5000    -46.2458     94.3060      8.8417      6.8036      9.9264     49.1273    112.7904
   681.0000    -46.5335     94.6844      8.6973      6.8039      9.8825     42.7859    114.3740
   681.5000    -46.9802     95.9691      8.6271      6.8042      9.7195     51.3992    115.7486
   682.0000    -47.0974     97.1028      8.5569      6.8045      9.3757     50.1937    117.2278
   682.5000    -47.0904     97.2546      8.4867      6.8049      9.2747     52.7646    117.9527
   683.0000    -47.2309     97.2554      8.4165      6.8203      9.2010     58.5078    117.9163
   683.5000    -47.2239     97.2561      8.3464      6.8206      9.1571     57.3024    118.6485
   684.0000    -47.2183     97.3324      8.2027      6.8209      9.1280     53.0757    119.3665
   684.5000    -47.2123     97.3332      8.1325      6.8212      9.0839     49.1505    120.9178
   685.0000    -47.2067     97.1072      8.1379      6.8215      9.0551     57.9156    123.0786
   685.5000    -47.2011     98.0900      8.1423      6.8218      9.0107     55.6527    125.3046
   686.0000    -47.0507     98.0150      8.1466      6.8221      8.9672     47.6495    126.7910
   686.5000    -46.8991     97.9402      8.0753      6.8224      8.9235     54.9034    128.2702
   687.0000    -46.7487     97.9412      7.9306      6.8227      8.8647     60.1934    128.9951
   687.5000    -46.7431     97.9419      7.8614      6.8230      8.8059     65.7855    129.7134
   688.0000    -46.7376     97.9427      7.7168      6.8233      8.7173     57.9276    130.4378
   688.5000    -46.7320     98.0190      7.5732      6.8236      8.6287     57.9366    131.9169
   689.0000    -46.8712     97.6419      7.5019      6.8239      8.5402     58.2417    132.6419
   689.5000    -46.8655     97.9449      7.4317      6.8091      8.4181     52.5653    132.6054
   690.0000    -47.1493     97.8700      7.3626      6.8094      8.3632     52.5074    133.3377
   690.5000    -47.4332     98.0975      7.3669      6.8097      8.3489     54.3238    133.3013
   691.0000    -47.7156     98.7025      7.4457      6.8100      8.3347     57.1962    133.2721
   691.5000    -47.8562     99.3830      7.4501      6.7952      8.3356     52.3661    133.2428
   692.0000    -47.8492    100.0635      7.5291      6.7955      8.3213     42.7014    132.4585
   692.5000    -47.8436    100.1398      7.6088      6.8109      8.3222     43.4597    131.6690
   693.0000    -47.8379    100.0650      7.6877      6.7961      8.3378     49.3539    130.1315
   693.5000    -47.8310     99.8392      7.6920      6.7964      8.3833     58.5714    129.3482
   694.0000    -47.5360     99.4623      7.6207      6.7967      8.3243     53.2874    129.3190
   694.5000    -47.3856     99.0098      7.5514      6.7970      8.3699     57.5200    132.3065
   695.0000    -47.3800     98.6330      7.4069      6.7973      8.4002     62.5079    135.2939
   695.5000    -47.3745     98.4713      7.2546      6.8128      8.2374     54.3537    138.2813
   696.0000    -47.2241     99.0121      6.9695      6.8131      8.0744     52.8454    142.0156
   696.5000    -47.2186     99.8437      6.6758      6.8134      7.9244     56.0214    145.7572
   697.0000    -47.0680    100.8263      6.3820      6.8137      7.6594     58.4413    148.7446
   697.5000    -46.9165    101.8089      6.1628      6.8140      7.4369     57.0847    150.9778
   698.0000    -46.6215    102.4894      6.0181      6.8143      7.2293     61.4684    154.7194
   698.5000    -46.3265    103.0944      5.8733      6.8146      7.1258     58.6013    158.4610
   699.0000    -46.0314    102.8686      5.8823      6.8149      7.0817     59.3596    159.9853
   699.5000    -45.7364    102.5672      6.1067      6.8152      7.0826     64.0453    161.4192
   700.0000    -45.7308    102.3837      6.1906      6.8121      7.1280     56.4955    160.3511
   700.5000    -45.7279    101.9477      6.2673      6.8026      7.2221     65.2552    156.8158
   701.0000    -45.7247    101.3660      6.3843      6.7930      7.3267     67.6710    153.2805
   701.5000    -45.7219    100.9158      6.3865      6.7835      7.3421     65.2525    151.5383
   702.0000    -45.5743    100.7670      6.4629      6.7739      7.3427     68.5743    151.5234
   702.5000    -45.4268    101.0728      6.6135      6.7644      7.3433     62.5305    150.7542
   703.0000    -45.4240    101.3024      6.6903      6.7540      7.3438     71.5924    149.9822
   703.5000    -45.1317    101.3809      6.7667      6.7538      7.4044     70.2310    149.9675
   704.0000    -44.9841    101.3839      6.8430      6.7537      7.4807     68.8700    149.1987
   704.5000    -44.8359    101.3868      6.9194      6.7535      7.5092     63.7325    148.4298
   705.0000    -44.6884    101.3142      6.9957      6.7534      7.4503     58.8972    147.6609
   705.5000    -44.6855    101.1661      7.0721      6.7532      7.4806     57.2340    146.1379
   706.0000    -44.6827    100.9426      7.1485      6.7380      7.5852     68.5618    144.6149
   706.5000    -44.8253    100.7150      7.1506      6.7227      7.7195     76.8685    143.0919
   707.0000    -44.8218    100.2628      7.0786      6.7225      7.8093     79.8885    141.5686
   707.5000    -44.8190     99.7884      7.0809      6.7224      7.9436     69.6147    140.7994
   708.0000    -44.9609     99.2174      7.1577      6.7222      8.0630     65.8368    140.0275
   708.5000    -45.1027     99.3722      7.1599      6.7221      8.0933     69.1585    139.2586
   709.0000    -45.2446     99.7528      7.1620      6.7219      8.0642     67.9486    138.4897
   709.5000    -45.2170     99.7558      7.1642      6.7369      8.0649     64.0196    138.4750
