~Version Information
 VERS. 2.0                             : CWLS Log ASCII Standard - Version 2.0
 WRAP. NO                              : One line per depth step
 PROG.                                 : SeisWare LAS Export
#
~Well Information
#MNEM.UNIT     DATA                    : DESCRIPTION
#----.----     ---------               : -----------------
 STRT.F          80.0000               : Start Depth
 STOP.F        1000.0000               : End Depth
 STEP.F           0.5000               : Depth Increment
 NULL.          -999.250               : Null Value
 WELL.         64-S-11                 : Common Well Name
 UWI .         490250634800            : Unique Well ID
 FLD .         Teapot Dome             : Field Name
 PROV.         Wyoming                 : Province / State
#
~Parameter Information
#MNEM.UNIT     VALUE                   : DESCRIPTION
#----.----     ---------               : -----------------
 EREF.F        5221.0000               : Elevation of Depth Reference
 DREF.         KB                      : Depth Reference
 EGL .F        5216.0000               : Ground Level Elevation
 EKB .F        5221.0000               : Kelly Bushing Elevation
#
~Other Information
# SeisWare LAS Export
#
~Curve Information
#MNEM.UNIT        API CODE             : CURVE DESCRIPTION
#----.----        ---------            : -----------------
 DEPT.F                                : Depth
 SPR .MV                               : SPONTANEOUS POTENTIAL FROM RES.
 DT  .US/F                             : INTERVAL TRANSIT TIME
 ILD .OHMM                             : INDUCTION LOG DEEP
 CALS.IN                               : CALIPER FROM SONIC LOG
 ASN .OHMM                             : AMPLIFIED SHORT NORMAL 16"
 GR  .GAPI                             : GAMMA RAY
 CILD.MMHO                             : CONDUCTIVITY INDUCTION LOG DEEP
#
~A     DEPT         SPR          DT         ILD        CALS         ASN          GR        CILD
# ...
   248.0000    -72.0058   -999.2500      5.6490   -999.2500      5.9208   -999.2500    191.5032
   248.5000    -71.8563   -999.2500      5.5759   -999.2500      5.9488   -999.2500    190.2275
   249.0000    -71.8514   -999.2500      5.5029   -999.2500      6.0145   -999.2500    189.6756
   249.5000    -71.7777   -999.2500      5.5046   -999.2500      6.0710   -999.2500    188.4301
   250.0000    -71.6739   -999.2500      5.5059   -999.2500      6.1161   -999.2500    187.1544
   250.5000    -71.5482   -999.2500      5.5819   -999.2500      6.1668   -999.2500    186.6328
   251.0000    -71.4664   -999.2500      5.6579   -999.2500      6.2212   -999.2500    185.8892
   251.5000    -71.3947   -999.2500      5.8493   -999.2500      6.2450   -999.2500    185.1319
   252.0000    -71.2450   -999.2500      6.1250   -999.2500      6.2667   -999.2500    184.3137
   252.5000    -71.2410   -999.2500      6.3319   -999.2500      6.2820   -999.2500    183.6156
   253.0000    -71.2366   -999.2500      6.5275   -999.2500      6.2728   -999.2500    181.8326
   253.5000    -71.2321   -999.2500      6.8032   -999.2500      6.2731   -999.2500    177.0474
   254.0000    -71.1340   -999.2500      7.0804   -999.2500      6.3320   -999.2500    168.5215
   254.5000    -71.0784   -999.2500      7.3798   -999.2500      6.7452   -999.2500    163.9530
   255.0000    -71.0741   -999.2500      7.6563   -999.2500      7.0903   -999.2500    159.0121
   255.5000    -71.0689   -999.2500      7.9071   -999.2500      7.3541   -999.2500    154.1815
   256.0000    -71.0653   -999.2500      7.9791   -999.2500      7.5501   -999.2500    151.3725
   256.5000    -71.0609   -999.2500      7.9809   -999.2500      7.7790   -999.2500    147.7489
   257.0000    -71.2011   -999.2500      7.8762   -999.2500      8.0717   -999.2500    147.3429
   257.5000    -71.1973   -999.2500      7.6779   -999.2500      7.6109   -999.2500    149.8428
   258.0000    -71.1931   -999.2500      7.4645   -999.2500      7.4948   -999.2500    152.8958
   258.5000    -71.1882   -999.2500      7.2846   -999.2500      7.3506   -999.2500    154.9235
   259.0000    -71.1843   -999.2500      7.0831   -999.2500      7.1955   -999.2500    157.1713
   259.5000    -71.2063   -999.2500      6.8736   -999.2500      7.0834   -999.2500    159.2498
   260.0000    -71.3207   -999.2500      6.6468   -999.2500      7.0080   -999.2500    162.4936
   260.5000    -71.3164   -999.2500      6.4138   -999.2500      6.9581   -999.2500    165.4557
   261.0000    -71.3465   -999.2500      6.3571   -999.2500      6.8849   -999.2500    166.8702
   261.5000    -71.4528   -999.2500      6.3586   -999.2500      6.8373   -999.2500    168.4656
   262.0000    -71.5936   -999.2500      6.3805   -999.2500      6.7786   -999.2500    167.7070
   262.5000    -71.5892   -999.2500      6.5105   -999.2500      6.7076   -999.2500    166.5724
   263.0000    -71.5848   -999.2500      6.6820   -999.2500      6.7949   -999.2500    164.2612
   263.5000    -71.5806   -999.2500      6.8598   -999.2500      7.0917   -999.2500    160.1543
   264.0000    -71.5762   -999.2500      7.1141   -999.2500      7.3488   -999.2500    156.6214
   264.5000    -71.5718   -999.2500      7.4839   -999.2500      7.4337   -999.2500    152.8018
   265.0000    -71.5668   -999.2500      7.6910   -999.2500      7.5692   -999.2500    148.0768
   265.5000    -71.5632   -999.2500      7.8637   -999.2500      7.7073   -999.2500    143.6541
   266.0000    -71.5588   -999.2500      8.0091   -999.2500      7.9563   -999.2500    140.0653
   266.5000    -71.4087   -999.2500      8.1918   -999.2500      8.0798   -999.2500    137.5075
   267.0000    -71.4049   -999.2500      8.3931   -999.2500      8.1706   -999.2500    135.2406
   267.5000    -71.4006   -999.2500      8.6088   -999.2500      8.2597   -999.2500    134.9610
   268.0000    -71.2506   -999.2500      8.6101   -999.2500      8.3434   -999.2500    133.6853
   268.5000    -71.2468   -999.2500      8.6116   -999.2500      8.4581   -999.2500    132.9670
   269.0000    -71.0972   -999.2500      8.5388   -999.2500      8.5438   -999.2500    134.6831
   269.5000    -70.9474   -999.2500      8.3506   -999.2500      8.5018   -999.2500    138.5810
   270.0000    -70.8612   -999.2500      8.1175   -999.2500      8.1949   -999.2500    146.5305
   270.5000    -70.7574   -999.2500      7.7248   -999.2500      7.7862   -999.2500    151.7459
   271.0000    -70.6442   -999.2500      7.3683   -999.2500      7.5708   -999.2500    154.9497
   271.5000    -70.5498   -999.2500      7.0681   -999.2500      7.3714   -999.2500    155.5694
   272.0000    -70.4906   -999.2500      6.7619   -999.2500      7.1774   -999.2500    155.5656
   272.5000    -70.4862   -999.2500      6.5656   -999.2500      7.0272   -999.2500    155.5619
   273.0000    -70.3359   -999.2500      6.5417   -999.2500      6.9401   -999.2500    155.5579
   273.5000    -70.1873   -999.2500      6.5431   -999.2500      7.0607   -999.2500    155.5543
   274.0000    -70.1829   -999.2500      6.6193   -999.2500      7.2834   -999.2500    154.7964
   274.5000    -70.1778   -999.2500      6.6502   -999.2500      7.1549   -999.2500    154.0384
   275.0000    -70.0290   -999.2500      6.6965   -999.2500      6.7906   -999.2500    153.2798
   275.5000    -70.0247   -999.2500      6.7725   -999.2500      6.8383   -999.2500    153.2768
   276.0000    -69.8746   -999.2500      6.6320   -999.2500      7.1095   -999.2500    155.6565
   276.5000    -69.8708   -999.2500      6.3083   -999.2500      7.2855   -999.2500    165.3350
   277.0000    -69.8438   -999.2500      6.0329   -999.2500      6.8991   -999.2500    170.4801
   277.5000    -69.7166   -999.2500      5.9220   -999.2500      6.8375   -999.2500    171.3615
   278.0000    -69.4910   -999.2500      5.7237   -999.2500      6.7303   -999.2500    172.1111
   278.5000    -69.3872   -999.2500      5.5909   -999.2500      6.6028   -999.2500    171.3537
   279.0000    -69.2682   -999.2500      5.5503   -999.2500      6.4921   -999.2500    172.1044
   279.5000    -69.1797   -999.2500      5.5191   -999.2500      6.4068   -999.2500    172.1000
   280.0000    -69.1153   -999.2500      5.5953   -999.2500      6.3065   -999.2500    173.2530
   280.5000    -69.2554   -999.2500      5.5968   -999.2500      6.3666   -999.2500    173.7669
   281.0000    -69.2511   -999.2500      5.6726   -999.2500      6.4642   -999.2500    174.3514
   281.5000    -69.2934   -999.2500      5.6741   -999.2500      6.5664   -999.2500    174.3477
   282.0000    -69.3875   -999.2500      5.6015   -999.2500      6.6953   -999.2500    175.3092
   282.5000    -69.3824   -999.2500      5.6027   -999.2500      6.7540   -999.2500    176.6025
   283.0000    -69.3788   -999.2500      5.6041   -999.2500      6.7445   -999.2500    177.0915
   283.5000    -69.5198   -999.2500      5.6059   -999.2500      6.5180   -999.2500    177.6055
   284.0000    -69.5146   -999.2500      5.6072   -999.2500      6.3201   -999.2500    178.8739
   284.5000    -69.5109   -999.2500      5.6086   -999.2500      6.1633   -999.2500    179.6040
   285.0000    -69.5065   -999.2500      5.6103   -999.2500      6.0581   -999.2500    180.3544
   285.5000    -69.5017   -999.2500      5.6116   -999.2500      6.0675   -999.2500    181.1050
   286.0000    -69.4272   -999.2500      5.6131   -999.2500      6.1363   -999.2500    180.3464
   286.5000    -69.3234   -999.2500      5.6147   -999.2500      6.2975   -999.2500    179.9962
   287.0000    -69.1985   -999.2500      5.6161   -999.2500      6.4766   -999.2500    177.9664
   287.5000    -68.9707   -999.2500      5.6176   -999.2500      6.6536   -999.2500    178.0728
   288.0000    -68.7547   -999.2500      5.6191   -999.2500      6.5131   -999.2500    180.7540
   288.5000    -68.6050   -999.2500      5.5031   -999.2500      6.2696   -999.2500    185.9189
   289.0000    -68.6009   -999.2500      5.4536   -999.2500      6.1472   -999.2500    188.6197
   289.5000    -68.4514   -999.2500      5.3259   -999.2500      6.0515   -999.2500    191.7533
