~Version Information
 VERS. 2.0                             : CWLS Log ASCII Standard - Version 2.0
 WRAP. NO                              : One line per depth step
 PROG.                                 : SeisWare LAS Export
#
~Well Information
#MNEM.UNIT     DATA                    : DESCRIPTION
#----.----     ---------               : -----------------
 STRT.F          80.0000               : Start Depth
 STOP.F        1000.0000               : End Depth
 STEP.F           0.5000               : Depth Increment
 NULL.          -999.250               : Null Value
 WELL.         64-S-11                 : Common Well Name
 UWI .         490250634800            : Unique Well ID
 FLD .         Teapot Dome             : Field Name
 PROV.         Wyoming                 : Province / State
#
~Parameter Information
#MNEM.UNIT     VALUE                   : DESCRIPTION
#----.----     ---------               : -----------------
 EREF.F        5221.0000               : Elevation of Depth Reference
 DREF.         KB                      : Depth Reference
 EGL .F        5216.0000               : Ground Level Elevation
 EKB .F        5221.0000               : Kelly Bushing Elevation
#
~Other Information
# SeisWare LAS Export
#
~Curve Information
#MNEM.UNIT        API CODE             : CURVE DESCRIPTION
#----.----        ---------            : -----------------
 DEPT.F                                : Depth
 SPR .MV                               : SPONTANEOUS POTENTIAL FROM RES.
 DT  .US/F                             : INTERVAL TRANSIT TIME
 ILD .OHMM                             : INDUCTION LOG DEEP
 CALS.IN                               : CALIPER FROM SONIC LOG
 ASN .OHMM                             : AMPLIFIED SHORT NORMAL 16"
 GR  .GAPI                             : GAMMA RAY
 CILD.MMHO                             : CONDUCTIVITY INDUCTION LOG DEEP
#
~A     DEPT         SPR          DT         ILD        CALS         ASN          GR        CILD
# ...
   416.0000    -62.1879    104.9549      7.1000      6.8608      6.9911     44.7067    146.5755
   416.5000    -62.1823    104.5055      7.1028      6.8759      7.0082     53.3226    145.7765
   417.0000    -62.0308    103.9806      7.1063      6.8759      6.9953     54.8366    142.7726
   417.5000    -61.8806    103.4556      7.0339      6.8759      6.9385     45.6277    142.7583
   418.0000    -61.7304    103.0062      6.9622      6.8759      6.7025     52.5809    143.5017
   418.5000    -61.5802    103.0099      6.9658      6.8608      6.6002     48.6579    144.9921
   419.0000    -61.5746    103.1648      6.8083      6.8457      6.5138     44.4328    148.8288
   419.5000    -61.5678    103.5462      6.3760      6.8306      6.4266     40.9630    152.5013
   420.0000    -61.5623    104.8339      5.7082      6.8306      6.2651     42.7802    159.2743
   420.5000    -61.5568    106.0461      4.9658      6.8306      6.0291     43.3890    173.5888
   421.0000    -61.4066    106.0499      3.9152      6.8154      5.7842     51.0974    199.2155
   421.5000    -61.3997    106.0538      2.8858      6.8154      5.3791     48.0808    236.1509
   422.0000    -61.3942    106.8268      2.4415      6.8154      4.6967     42.6461    330.4051
   422.5000    -61.3887    108.7385      2.0717      6.8003      4.0292     51.7152    383.9352
   423.0000    -61.2385    112.5567      1.8510      6.8003      3.5848     55.4957    441.9903
   423.5000    -61.2330    117.4510      1.6303      6.7700      3.2601     67.2827    500.0442
   424.0000    -61.2262    127.3834      1.6338      6.7549      3.1134     84.0546    520.3930
   424.5000    -61.2207    135.8136      1.7112      6.7549      3.0262     84.7184    514.3419
   425.0000    -61.2152    143.7560      1.8630      6.7549      3.0130     73.9428    503.7695
   425.5000    -61.0650    147.1713      2.2469      6.7549      3.0766     68.0559    465.2937
   426.0000    -61.0594    137.7349      2.9126      6.7549      3.3010     67.4563    404.3606
   426.5000    -61.0526    131.8474      3.4370      6.7549      3.5710     49.3340    321.2192
   427.0000    -61.1918    124.1472      4.4085      6.7549      3.8112     36.4986    267.6604
   427.5000    -61.4758    113.5014      5.8272      6.7549      4.6020     24.7206    199.0186
   428.0000    -61.7598    102.5535      7.5445      6.7549      7.0416     18.2297    131.8828
   428.5000    -62.1870    100.2150      8.5161      6.7700      8.0294     15.9683    106.9816
   429.0000    -62.4709    100.8239     10.0837      6.7700      8.6416     20.0514     94.9009
   429.5000    -62.6101    100.6010     11.4278      6.7700      9.5366     18.6964     86.5910
   430.0000    -62.8955     99.5474     11.8778      6.7700     10.7195      8.2779     77.5264
   430.5000    -63.0352     97.0587     11.4342      6.7549     11.6691      9.9518     83.5422
   431.0000    -63.3172     93.3615     10.7664      6.7398     12.2665      9.7413     92.5776
   431.5000    -63.6012     86.2656      9.2044      6.7398     12.4931      6.9245    106.8921
   432.0000    -63.7390     84.6077      7.4933      6.7398      9.8898      6.9466    134.0271
   432.5000    -63.4441     85.4423      6.0065      6.7398      9.8924      7.8853    154.3712
   433.0000    -62.4139     87.3343      5.6361      6.7549      9.6416     15.3311    170.1940
   433.5000    -61.8398     89.3773      5.4161      6.7549      7.6496     31.2321    185.2626
   434.0000    -61.2555     93.4596      5.1953      6.7549      6.3810     41.3756    193.5439
   434.5000    -60.6711    101.3183      4.9746      6.7700      6.0919     46.4147    200.3966
   435.0000    -60.0867    110.3855      4.9781      6.7700      5.9452     49.2596    205.5781
   435.5000    -59.7704    111.2201      5.0555      6.7700      5.8873     46.2837    206.3215
   436.0000    -60.7980    111.7526      5.2073      6.7549      6.3363     43.3785    201.0246
   436.5000    -61.5161    109.3394      5.8808      6.7549      7.4584     31.2985    179.8941
   437.0000    -62.0894    107.0773      6.9275      6.7549      8.1119     27.0734    157.3726
   437.5000    -62.2287    103.0025      7.6755      6.7549      8.4266     27.6821    133.8589
   438.0000    -62.3679    101.7969      8.2745      6.7398      8.8007     24.6655    121.7782
   438.5000    -62.3610    102.9345      8.8734      6.7398      9.0419     29.6549    112.7141
   439.0000    -62.2108    102.5606      9.1809      6.7398      9.3114     31.3199    108.9290
   439.5000    -62.0606    102.2622      9.2523      6.7398      9.4772     30.1160    105.8945
   440.0000    -62.6436    102.0394      9.4042      6.7398      9.6877     32.5385    103.6178
   440.5000    -63.4954    101.8166      9.6306      6.7398      9.9661     24.9890    102.0951
   441.0000    -63.6360    101.7447      9.9315      6.7398     10.2220     25.2957    100.5725
   441.5000    -63.7752    101.7486     10.1585      6.7398     10.4533     23.4875     99.7735
   442.0000    -63.7683    101.9789     10.3849      6.7549     10.6042     27.8738     97.5237
   442.5000    -63.9076    102.2848     10.3877      6.7549     10.8296     29.6899     96.0011
   443.0000    -64.0468    102.6667     10.3906      6.7549     10.9810     30.2997     95.2326
   443.5000    -64.1860    103.0499     10.3935      6.7549     11.0575     30.7574     94.4642
   444.0000    -64.4686    103.3615     10.3969      6.7700     11.1341     32.5746     94.3688
   444.5000    -64.6078    103.7464     10.5488      6.7700     11.1362     33.7865     92.9237
   445.0000    -64.8904    104.1163     10.7006      6.7700     11.2876     27.1456     92.1552
   445.5000    -65.0310    103.7994     10.8525      6.7700     11.4386     25.3374     91.3867
   446.0000    -64.8794    102.7201     11.0050      6.7852     11.5151     27.4567     91.3724
   446.5000    -64.7292    101.6723     11.0824      6.7852     11.6660     28.8207     90.6004
   447.0000    -64.5712     99.7706     11.0852      6.7852     11.7425     28.2210     90.5860
   447.5000    -63.9932     97.7160     11.0880      6.7852     11.8196     25.0533     89.8176
   448.0000    -63.8444     97.2666     11.0909      6.7852     11.9705     24.1504     89.0491
   448.5000    -64.1269     97.0437     11.0944      6.7852     12.0470     25.9687     88.2607
   449.0000    -64.4110     97.3496     11.0972      6.7852     12.1236     25.6711     86.7544
   449.5000    -64.7121     98.8639     11.1000      6.7852     12.2002     21.7481     85.9860
   450.0000    -64.9928    100.1517     11.1773      6.7398     12.2846     26.8201     85.8871
   450.5000    -65.1689    101.2119     11.3302      6.7470     12.3858     30.8170     85.3306
   451.0000    -65.4009    102.0457     11.3338      6.7548     12.5019     18.4321     85.9130
   451.5000    -65.5401    101.7466     11.3382      6.7626     12.6516     19.9442     85.8771
   452.0000    -65.8226    101.1454     11.4163      6.7671     12.7268     28.7071     85.8484
   452.5000    -66.2527    101.5260     11.5689      6.7662     12.8765     32.7871     85.0655
   453.0000    -66.6799    101.4527     11.7960      6.7808     13.1006     32.7886     84.2826
   453.5000    -66.9638    101.1543     12.0231      6.7799     13.2504     32.6391     82.7451
   454.0000    -67.3911    100.8552     12.4001      6.7791     13.4745     32.3385     81.2014
   454.5000    -67.8197    100.6316     12.7017      6.7784     13.6242     28.4121     79.6643
   455.0000    -68.2483    100.9367     12.8543      6.7776     13.7738     32.0394     78.1273
   455.5000    -68.8217    101.6949     13.0814      6.7769     14.0046     30.6813     76.5903
   456.0000    -69.1057    100.4139     13.1595      6.7760     14.4454     31.4381     75.0528
   456.5000    -69.0998     96.7915     13.3867      6.7905     14.7439     32.2190     73.5091
   457.0000    -68.5143     94.9743     13.5401      6.7896     14.7447     29.3263     71.2179
   457.5000    -67.7851     94.2169     13.7672      6.7889     14.8944     26.4578     70.4350
