~Version Information
 VERS. 2.0                             : CWLS Log ASCII Standard - Version 2.0
 WRAP. NO                              : One line per depth step
 PROG.                                 : SeisWare LAS Export
#
~Well Information
#MNEM.UNIT     DATA                    : DESCRIPTION
#----.----     ---------               : -----------------
 STRT.F          80.0000               : Start Depth
 STOP.F        1000.0000               : End Depth
 STEP.F           0.5000               : Depth Increment
 NULL.          -999.250               : Null Value
 WELL.         64-S-11                 : Common Well Name
 UWI .         490250634800            : Unique Well ID
 FLD .         Teapot Dome             : Field Name
 PROV.         Wyoming                 : Province / State
#
~Parameter Information
#MNEM.UNIT     VALUE                   : DESCRIPTION
#----.----     ---------               : -----------------
 EREF.F        5221.0000               : Elevation of Depth Reference
 DREF.         KB                      : Depth Reference
 EGL .F        5216.0000               : Ground Level Elevation
 EKB .F        5221.0000               : Kelly Bushing Elevation
#
~Other Information
# SeisWare LAS Export
#
~Curve Information
#MNEM.UNIT        API CODE             : CURVE DESCRIPTION
#----.----        ---------            : -----------------
 DEPT.F                                : Depth
 SPR .MV                               : SPONTANEOUS POTENTIAL FROM RES.
 DT  .US/F                             : INTERVAL TRANSIT TIME
 ILD .OHMM                             : INDUCTION LOG DEEP
 CALS.IN                               : CALIPER FROM SONIC LOG
 ASN .OHMM                             : AMPLIFIED SHORT NORMAL 16"
 GR  .GAPI                             : GAMMA RAY
 CILD.MMHO                             : CONDUCTIVITY INDUCTION LOG DEEP
#
~A     DEPT         SPR          DT         ILD        CALS         ASN          GR        CILD
# ...
   122.0000    -79.4456   -999.2500      5.9097   -999.2500      6.3804   -999.2500    179.2409
   122.5000    -79.3723   -999.2500      5.7887   -999.2500      6.2439   -999.2500    184.2572
   123.0000    -79.3683   -999.2500      5.5690   -999.2500      6.1030   -999.2500    193.2934
   123.5000    -79.3650   -999.2500      5.5466   -999.2500      5.9060   -999.2500    197.0551
   124.0000    -79.3614   -999.2500      5.3512   -999.2500      5.7557   -999.2500    202.3228
   124.5000    -79.2123   -999.2500      5.1315   -999.2500      5.6301   -999.2500    206.8341
   125.0000    -79.2090   -999.2500      5.0347   -999.2500      5.4168   -999.2500    209.3388
   125.5000    -79.2053   -999.2500      4.9881   -999.2500      5.3516   -999.2500    210.5845
   126.0000    -79.0562   -999.2500      5.0661   -999.2500      5.3434   -999.2500    211.3250
   126.5000    -79.0530   -999.2500      5.2421   -999.2500      5.4185   -999.2500    210.3105
   127.0000    -78.9042   -999.2500      5.4435   -999.2500      5.5140   -999.2500    208.2881
   127.5000    -78.9002   -999.2500      5.6702   -999.2500      5.6927   -999.2500    203.7496
   128.0000    -78.7518   -999.2500      5.7966   -999.2500      5.8519   -999.2500    197.9587
   128.5000    -78.7482   -999.2500      5.9732   -999.2500      6.0112   -999.2500    191.6629
   129.0000    -78.7441   -999.2500      6.1746   -999.2500      6.2004   -999.2500    186.6239
   129.5000    -78.7410   -999.2500      6.4008   -999.2500      6.4638   -999.2500    181.8363
   130.0000    -78.7373   -999.2500      6.5030   -999.2500      6.5903   -999.2500    178.0543
   130.5000    -78.7332   -999.2500      6.6300   -999.2500      6.6587   -999.2500    173.7695
   131.0000    -78.7300   -999.2500      6.6329   -999.2500      6.6635   -999.2500    170.4902
   131.5000    -78.7264   -999.2500      6.5863   -999.2500      6.6193   -999.2500    171.2330
   132.0000    -78.7223   -999.2500      6.5149   -999.2500      6.5401   -999.2500    173.7355
   132.5000    -78.7192   -999.2500      6.3443   -999.2500      6.3781   -999.2500    175.4839
   133.0000    -78.7155   -999.2500      6.2232   -999.2500      6.2990   -999.2500    177.9864
   133.5000    -78.7114   -999.2500      6.1766   -999.2500      6.2006   -999.2500    179.9862
   134.0000    -78.7083   -999.2500      6.1300   -999.2500      6.1715   -999.2500    181.2318
   134.5000    -78.7047   -999.2500      6.0089   -999.2500      6.1965   -999.2500    181.7232
   135.0000    -78.7005   -999.2500      6.0119   -999.2500      6.2470   -999.2500    180.4550
   135.5000    -78.6974   -999.2500      6.0149   -999.2500      6.3062   -999.2500    179.1868
   136.0000    -78.6938   -999.2500      6.0179   -999.2500      6.3466   -999.2500    177.9185
   136.5000    -78.5445   -999.2500      6.0952   -999.2500      6.4125   -999.2500    174.8907
   137.0000    -78.5414   -999.2500      6.1974   -999.2500      6.4859   -999.2500    171.3599
   137.5000    -78.5377   -999.2500      6.2500   -999.2500      6.5904   -999.2500    169.5890
   138.0000    -78.5336   -999.2500      6.3274   -999.2500      6.6822   -999.2500    168.3207
   138.5000    -78.3853   -999.2500      6.4048   -999.2500      6.7788   -999.2500    166.8011
   139.0000    -78.3711   -999.2500      6.4821   -999.2500      6.8784   -999.2500    165.0302
   139.5000    -78.2324   -999.2500      6.5595   -999.2500      6.9816   -999.2500    163.7619
   140.0000    -78.1713   -999.2500      6.5873   -999.2500      7.0833   -999.2500    162.2423
   140.5000    -78.0806   -999.2500      6.6399   -999.2500      7.1315   -999.2500    159.7172
   141.0000    -78.0763   -999.2500      6.7669   -999.2500      7.0875   -999.2500    157.6948
   141.5000    -78.0733   -999.2500      6.8939   -999.2500      7.0086   -999.2500    155.6725
   142.0000    -78.0697   -999.2500      7.0208   -999.2500      6.9511   -999.2500    154.4042
   142.5000    -78.0654   -999.2500      7.1478   -999.2500      6.9554   -999.2500    153.8902
   143.0000    -78.0624   -999.2500      7.2748   -999.2500      7.0281   -999.2500    152.6219
   143.5000    -78.0588   -999.2500      7.3274   -999.2500      7.1672   -999.2500    151.3537
   144.0000    -78.0545   -999.2500      7.4544   -999.2500      7.2399   -999.2500    150.0855
   144.5000    -78.1967   -999.2500      7.4821   -999.2500      7.2868   -999.2500    148.8173
   145.0000    -78.1930   -999.2500      7.4107   -999.2500      7.3550   -999.2500    148.3032
   145.5000    -78.1887   -999.2500      7.3641   -999.2500      7.4203   -999.2500    152.0625
   146.0000    -78.1858   -999.2500      7.2431   -999.2500      7.4506   -999.2500    157.8331
   146.5000    -78.1821   -999.2500      7.1964   -999.2500      7.4213   -999.2500    160.3356
   147.0000    -78.1778   -999.2500      7.0754   -999.2500      7.2435   -999.2500    162.8381
   147.5000    -78.1749   -999.2500      6.9544   -999.2500      6.8881   -999.2500    164.5865
   148.0000    -78.1693   -999.2500      6.7589   -999.2500      6.7387   -999.2500    167.0890
   148.5000    -78.0218   -999.2500      6.5635   -999.2500      6.6568   -999.2500    168.0832
   149.0000    -77.8737   -999.2500      6.4425   -999.2500      6.6033   -999.2500    169.5802
   149.5000    -77.8696   -999.2500      6.3214   -999.2500      6.6364   -999.2500    170.8258
   150.0000    -77.7213   -999.2500      6.3244   -999.2500      6.7410   -999.2500    171.5687
   150.5000    -77.5247   -999.2500      6.3274   -999.2500      6.8382   -999.2500    170.5518
   151.0000    -77.4238   -999.2500      6.3304   -999.2500      6.9060   -999.2500    170.0377
   151.5000    -77.2751   -999.2500      6.3829   -999.2500      6.9214   -999.2500    168.0154
   152.0000    -77.0798   -999.2500      6.5099   -999.2500      6.9369   -999.2500    165.4902
   152.5000    -76.9775   -999.2500      6.6369   -999.2500      6.9524   -999.2500    163.2164
   153.0000    -76.7349   -999.2500      6.8135   -999.2500      7.0256   -999.2500    160.1886
   153.5000    -76.6799   -999.2500      6.9653   -999.2500      7.1439   -999.2500    156.6578
   154.0000    -76.6763   -999.2500      7.1667   -999.2500      7.3560   -999.2500    153.3786
   154.5000    -76.6727   -999.2500      7.3433   -999.2500      7.5000   -999.2500    150.8535
   155.0000    -76.6691   -999.2500      7.5694   -999.2500      7.7294   -999.2500    145.8144
   155.5000    -76.6654   -999.2500      7.7708   -999.2500      8.0555   -999.2500    139.7700
   156.0000    -76.6618   -999.2500      8.0218   -999.2500      8.0742   -999.2500    135.9880
   156.5000    -76.6582   -999.2500      8.2480   -999.2500      8.1179   -999.2500    132.4572
   157.0000    -76.6545   -999.2500      8.4494   -999.2500      8.2376   -999.2500    130.6863
   157.5000    -76.6509   -999.2500      8.6260   -999.2500      8.4601   -999.2500    129.4180
   158.0000    -76.6473   -999.2500      8.7530   -999.2500      8.7150   -999.2500    128.4012
   158.5000    -76.6436   -999.2500      8.7559   -999.2500      8.7924   -999.2500    129.1440
   159.0000    -76.6401   -999.2500      8.7341   -999.2500      8.6291   -999.2500    132.6520
   159.5000    -76.6364   -999.2500      8.5387   -999.2500      8.3299   -999.2500    138.4226
   160.0000    -76.7778   -999.2500      8.4177   -999.2500      8.1399   -999.2500    142.6848
   160.5000    -76.7743   -999.2500      8.2222   -999.2500      7.9394   -999.2500    145.4387
   161.0000    -76.7707   -999.2500      8.1012   -999.2500      7.7959   -999.2500    145.9301
   161.5000    -76.7669   -999.2500      7.9057   -999.2500      7.7403   -999.2500    146.4216
   162.0000    -76.7634   -999.2500      7.6855   -999.2500      7.6921   -999.2500    146.9130
   162.5000    -76.7598   -999.2500      7.5893   -999.2500      7.6638   -999.2500    147.1531
   163.0000    -76.7560   -999.2500      7.3938   -999.2500      7.6494   -999.2500    147.1418
   163.5000    -76.7525   -999.2500      7.2976   -999.2500      7.6654   -999.2500    147.1305
