~Version Information
 VERS. 2.0                             : CWLS Log ASCII Standard - Version 2.0
 WRAP. NO                              : One line per depth step
 PROG.                                 : SeisWare LAS Export
#
~Well Information
#MNEM.UNIT     DATA                    : DESCRIPTION
#----.----     ---------               : -----------------
 STRT.F          80.0000               : Start Depth
 STOP.F        1000.0000               : End Depth
 STEP.F           0.5000               : Depth Increment
 NULL.          -999.250               : Null Value
 WELL.         64-S-11                 : Common Well Name
 UWI .         490250634800            : Unique Well ID
 FLD .         Teapot Dome             : Field Name
 PROV.         Wyoming                 : Province / State
#
~Parameter Information
#MNEM.UNIT     VALUE                   : DESCRIPTION
#----.----     ---------               : -----------------
 EREF.F        5221.0000               : Elevation of Depth Reference
 DREF.         KB                      : Depth Reference
 EGL .F        5216.0000               : Ground Level Elevation
 EKB .F        5221.0000               : Kelly Bushing Elevation
#
~Other Information
# SeisWare LAS Export
#
~Curve Information
#MNEM.UNIT        API CODE             : CURVE DESCRIPTION
#----.----        ---------            : -----------------
 DEPT.F                                : Depth
 SPR .MV                               : SPONTANEOUS POTENTIAL FROM RES.
 DT  .US/F                             : INTERVAL TRANSIT TIME
 ILD .OHMM                             : INDUCTION LOG DEEP
 CALS.IN                               : CALIPER FROM SONIC LOG
 ASN .OHMM                             : AMPLIFIED SHORT NORMAL 16"
 GR  .GAPI                             : GAMMA RAY
 CILD.MMHO                             : CONDUCTIVITY INDUCTION LOG DEEP
#
~A     DEPT         SPR          DT         ILD        CALS         ASN          GR        CILD
# ...
   962.0000    -32.9200     92.0202     10.1096      6.7752     12.0392     14.6831     95.9578
   962.5000    -32.6334     91.7044     10.1235      6.7757     12.0394     10.2719     96.7195
   963.0000    -32.3468     91.0517     10.1869      6.7763     12.0395      9.9698     96.7285
   963.5000    -32.3503     90.6000     10.1884      6.7768     12.0286     13.1420     96.7358
   964.0000    -32.0637     90.1483     10.1898      6.7773     11.9655     17.3716     95.9872
   964.5000    -31.7559     90.3009     10.1912      6.7778     12.0400     19.3353     96.7505
   965.0000    -31.4904     90.6800     10.1182      6.7784     11.9658     21.9033     96.7578
   965.5000    -31.2045     90.9081     10.1200      6.7789     11.9660     20.6949     96.7652
   966.0000    -30.9172     90.9096     10.1176      6.7794     11.9661     18.1269     96.7725
   966.5000    -30.7752     90.6090      9.9751      6.7799     12.0406     17.5227     96.7799
   967.0000    -30.7788     90.1573      9.9765      6.7805     12.0407     21.1480     96.7873
   967.5000    -30.7816     89.7812      9.9780      6.7810     11.9666     22.6586     96.7964
   968.0000    -30.6397     89.4805     10.0535      6.7815     12.0410     30.3625     96.8037
   968.5000    -30.4825     89.4820     10.1290      6.7822     12.0412     30.8157     96.0551
   969.0000    -30.2118     89.5591     10.2045      6.7827     12.0413     24.1692     96.0642
   969.5000    -30.2146     89.4847     10.2059      6.7832     12.0415     23.7160     94.5615
   970.0000    -30.0727     89.2599     10.2815      6.7838     12.0416     28.3988     93.8146
   970.5000    -29.9308     89.0349     10.4314      6.7843     12.0418     27.4924     93.8238
   971.0000    -29.7882     88.8849     10.5069      6.7848     12.0419     25.9819     93.8312
   971.5000    -29.5022     88.8868     10.5824      6.7853     12.0420   -999.2500     95.3469
   972.0000    -29.2157     88.8883     10.5839      6.7859     12.0422   -999.2500     95.3544
   972.5000    -29.0642     88.8142     10.5112      6.7864     12.0424   -999.2500     96.1175
   973.0000    -28.7878     88.6646     10.5127      6.7869     12.0425   -999.2500     96.1248
   973.5000    -28.7906     88.5151     10.3659      6.7874     12.0427   -999.2500     97.6404
   974.0000    -28.6480     88.3656     10.2874      6.7880     12.0428   -999.2500     98.4019
   974.5000    -28.5061     88.3671     10.2207      6.7885     12.0430   -999.2500     98.4093
   975.0000    -28.3642     88.5196     10.2225      6.7890     11.9688   -999.2500     98.4166
   975.5000    -28.2230     88.7503     10.2239      6.7895     11.8204   -999.2500     98.4239
   976.0000    -28.0810     88.9808     10.2253      6.7901     11.7412   -999.2500     98.4314
   976.5000    -27.9392     89.2115     10.2268      6.7906     11.5978   -999.2500     98.4389
   977.0000    -27.7973     89.4421     10.2282      6.7911     11.5979   -999.2500     97.6918
   977.5000    -27.6554     89.5846     10.1556      6.7917     11.5981   -999.2500     97.7010
   978.0000    -27.5135     89.5105     10.1570      6.7922     11.5982   -999.2500     97.7083
   978.5000    -27.3716     89.4365     10.0844      6.7774     11.5240   -999.2500     97.7157
   979.0000    -27.2297     89.3624     10.0862      6.7781     11.5242   -999.2500     97.7230
   979.5000    -27.0878     89.2884     10.0876      6.7786     11.4501   -999.2500     97.7303
   980.0000    -26.9464     89.1392     10.0146      6.7791     11.4502   -999.2500     97.7377
   980.5000    -26.9494     89.0652     10.0164      6.7797     11.4504   -999.2500     97.7451
   981.0000    -26.6627     88.9908     10.0178      6.7802     11.4505   -999.2500     97.7527
   981.5000    -26.5208     88.9168      9.9452      6.7807     11.4507   -999.2500     97.7615
   982.0000    -26.3789     88.8427      9.9466      6.7813     11.4508   -999.2500     97.7689
   982.5000    -26.2370     88.6932      9.9484      6.7818     11.4510   -999.2500     97.7762
   983.0000    -26.0951     88.6191     10.0239      6.7823     11.4511   -999.2500     98.5377
   983.5000    -25.9539     88.8476      9.9513      6.7828     11.4513   -999.2500     99.2992
   984.0000    -25.8120     89.3778      9.9527      6.7834     11.4514   -999.2500     99.3065
   984.5000    -25.8148     89.6059      9.9542      6.7688     11.3773   -999.2500    100.0680
   985.0000    -25.8176     89.6829      9.8815      6.7693     11.3031   -999.2500    102.3379
   985.5000    -25.8211     89.6844      9.7348      6.7698     11.2290   -999.2500    103.2081
   986.0000    -25.8239     89.6859      9.7363      6.7552     11.1549   -999.2500    105.3709
   986.5000    -25.6813     89.6874      9.6636      6.7557     11.0807   -999.2500    106.1324
   987.0000    -25.6848     89.7644      9.4432      6.7563     11.0065   -999.2500    108.4022
   987.5000    -25.5422     89.7659      9.2965      6.7568     10.9324   -999.2500    110.6720
   988.0000    -25.4003     89.7674      9.1498      6.7573     10.7097   -999.2500    112.1876
   988.5000    -25.2590     89.8444      9.0027      6.7579     10.5488   -999.2500    113.7032
   989.0000    -24.9725     89.8459      8.7823      6.7584     10.3268   -999.2500    115.2189
   989.5000    -24.8306     89.9985      8.4874      6.7589     10.1049   -999.2500    117.4886
   990.0000    -24.5440     90.1511      8.4050      6.7596      9.9227   -999.2500    119.0045
   990.5000    -24.2573     90.3817      8.1943      6.7601      9.7892   -999.2500    120.5218
   991.0000    -24.1154     90.6929      8.1213      6.7606      9.6556   -999.2500    122.0374
   991.5000    -23.8288     91.0770      8.0487      6.7611      9.4916   -999.2500    124.0145
   992.0000    -23.6869     91.6022      7.9764      6.7617      9.3211   -999.2500    126.3609
   992.5000    -23.5456     92.0595      7.9779      6.7773      9.0320   -999.2500    128.2051
   993.0000    -23.5485     92.5018      7.9793      6.7778      8.7944   -999.2500    130.4676
   993.5000    -23.4066     92.8054      7.9067      6.7784      8.5865   -999.2500    131.2217
   994.0000    -23.1207     93.1090      7.9822      6.7789      8.2597   -999.2500    130.4676
   994.5000    -23.1235     93.4127      8.0580      6.7794      7.7993   -999.2500   -999.2500
   995.0000    -23.1263     93.6407      8.1335      6.7800      7.4874   -999.2500   -999.2500
   995.5000    -23.2740   -999.2500      8.2091      6.7805      7.1755   -999.2500   -999.2500
   996.0000    -23.4216   -999.2500      8.3586      6.7810      6.7527   -999.2500   -999.2500
   996.5000    -23.2790   -999.2500      8.3601      6.7815      5.7345   -999.2500   -999.2500
   997.0000    -22.9923   -999.2500      8.2874      6.7821      5.4672   -999.2500   -999.2500
   997.5000    -22.8504   -999.2500      8.2148      6.7826      5.2742   -999.2500   -999.2500
   998.0000    -23.1434   -999.2500      8.2163      6.7982      5.3783   -999.2500   -999.2500
   998.5000    -23.8698   -999.2500      8.2180      6.7835      5.9282   -999.2500   -999.2500
   999.0000    -23.7279   -999.2500      8.2195      6.7085      6.7010   -999.2500   -999.2500
   999.5000    -23.5860   -999.2500      8.2950      6.5426      7.8156   -999.2500   -999.2500
  1000.0000    -23.5895   -999.2500      8.3705   -999.2500      8.3952   -999.2500   -999.2500
