~Version Information
 VERS. 2.0                             : CWLS Log ASCII Standard - Version 2.0
 WRAP. NO                              : One line per depth step
 PROG.                                 : SeisWare LAS Export
#
~Well Information
#MNEM.UNIT     DATA                    : DESCRIPTION
#----.----     ---------               : -----------------
 STRT.F          80.0000               : Start Depth
 STOP.F        1000.0000               : End Depth
 STEP.F           0.5000               : Depth Increment
 NULL.          -999.250               : Null Value
 WELL.         64-S-11                 : Common Well Name
 UWI .         490250634800            : Unique Well ID
 FLD .         Teapot Dome             : Field Name
 PROV.         Wyoming                 : Province / State
#
~Parameter Information
#MNEM.UNIT     VALUE                   : DESCRIPTION
#----.----     ---------               : -----------------
 EREF.F        5221.0000               : Elevation of Depth Reference
 DREF.         KB                      : Depth Reference
 EGL .F        5216.0000               : Ground Level Elevation
 EKB .F        5221.0000               : Kelly Bushing Elevation
#
~Other Information
# SeisWare LAS Export
#
~Curve Information
#MNEM.UNIT        API CODE             : CURVE DESCRIPTION
#----.----        ---------            : -----------------
 DEPT.F                                : Depth
 SPR .MV                               : SPONTANEOUS POTENTIAL FROM RES.
 DT  .US/F                             : INTERVAL TRANSIT TIME
 ILD .OHMM                             : INDUCTION LOG DEEP
 CALS.IN                               : CALIPER FROM SONIC LOG
 ASN .OHMM                             : AMPLIFIED SHORT NORMAL 16"
 GR  .GAPI                             : GAMMA RAY
 CILD.MMHO                             : CONDUCTIVITY INDUCTION LOG DEEP
#
~A     DEPT         SPR          DT         ILD        CALS         ASN          GR        CILD
# ...
   836.0000    -35.3111     92.3296      8.7734      6.5263      9.2454     69.0332    117.6471
   836.5000    -35.3111     91.4247      8.4045      6.5420      9.3954     73.4139    119.9095
   837.0000    -35.3111     90.8220      7.4430      6.5577      9.4861     74.4713    126.6968
   837.5000    -35.3111     90.8990      6.8519      6.5583      9.4875     74.3202    138.7632
   838.0000    -35.4559     93.0153      6.0237      6.5436      9.2958     71.1480    155.3544
   838.5000    -35.4559     95.8113      5.2795      6.5291      9.0447     80.0604    193.0618
   839.0000    -35.3111    113.3354      5.0047      6.5146      8.3032     89.1239    202.1116
   839.5000    -35.0217    114.3188      4.9321      6.5153      7.4428     89.5770    205.1282
   840.0000    -34.7323    109.9396      4.7581      6.6823      5.9589     90.3323    202.8658
   840.5000    -34.2981    109.0348      4.8016      6.9551      6.3878     90.7009    199.0950
   841.0000    -34.2981    106.9048      4.7292      6.9104      6.3153     83.6858    198.3409
   841.5000    -34.4428    102.9396      5.0259      6.8960      6.1100     78.5499    196.8326
   842.0000    -34.4428     86.0785      6.1547      6.8210      6.8044     70.3927    189.0817
   842.5000    -34.4428     88.9504      7.2809      6.7912      9.1212     63.8796    158.4455
   843.0000    -34.4428     90.0848      8.2794      6.7768      9.7124     63.7423    134.2686
   843.5000    -34.4428     90.9927      9.0191      6.7774      9.9506     61.6314    116.1388
   844.0000    -34.4428     92.0516      9.6850      6.7780     10.9244     66.9836    100.3017
   844.5000    -34.4428     92.5062      9.9817      6.7937     11.0728     68.8822     96.5309
   845.0000    -34.4428     93.0364      9.3182      6.7943     10.8528     66.0719    101.0558
   845.5000    -34.4428     93.3400      8.8762      6.7949     10.7803     63.9924    107.0890
   846.0000    -34.4428     93.6436      8.7297      6.8106     10.7818     58.5144    110.8597
   846.5000    -34.4428     93.8717      8.7309      6.8264     10.9304     47.1299    113.1222
   847.0000    -34.4428     93.7976      9.0375      6.8421     11.0791     54.3463    113.1222
   847.5000    -34.5876     93.5725      9.4966      6.8578     11.3139     53.6254    110.1056
   848.0000    -34.5876     93.1118     10.0642      6.8584     11.6718     54.8338    104.8265
   848.5000    -34.5876     92.3328     10.8040      6.8590     12.1892     48.6405     98.0392
   849.0000    -34.8770     88.0637     12.1346      6.8596     12.9279     38.8218     92.0060
   849.5000    -35.3111     85.4973     13.6867      6.8451     14.1828     29.9094     84.4646
   850.0000    -36.0347     84.7435     15.2389      6.8306     15.8064     21.7992     77.6772
   850.5000    -37.4074     89.3522     16.7911      6.8160     16.9875      3.6254     69.9281
   851.0000    -39.7942     94.2700     18.1955      6.7850     18.3162    -11.9335     61.0860
   851.5000    -43.8449     95.9238     19.9692      6.6941     19.6448    -14.6526     52.7903
   852.0000    -48.4745    100.5318     21.3885      6.6184     20.1671    -14.6526     49.0196
   852.5000    -52.5252    105.7440     22.0520      6.5438     20.1512    -14.5015     48.2655
   853.0000    -55.4181    108.9925     22.3365      6.5440     19.7962    -13.7462     48.2655
   853.5000    -56.1602    107.7093     19.0881      6.5291     19.7233    -10.2719     48.2655
   854.0000    -55.8495    106.1993     17.7599      6.5292     19.9461     -6.3444     49.0196
   854.5000    -54.9477    107.0310     16.9487      6.5294     20.3160     -7.8550     50.5279
   855.0000    -53.8203    108.2402     16.2113      6.5295     20.6122     -4.8338     52.8653
   855.5000    -53.3847    111.0356     15.6217      6.5297     20.5396     -6.0423     56.5611
   856.0000    -53.2386    112.3958     15.3275      6.5298     20.0246     -4.9849     58.0694
   856.5000    -53.6714    113.3027     15.1071      6.5300     19.4359     -3.1722     58.8235
   857.0000    -53.0911    108.1677     15.1083      6.5452     18.8422     -3.9275     59.5777
   857.5000    -51.7872    105.4494     15.1958      6.5605     18.6270     -3.0211     60.3318
   858.0000    -50.9175    100.3897     15.2587      6.6067     19.2185      0.3021     60.3318
   858.5000    -48.8341     94.0461     15.2599      6.7443     19.2932     -1.8127     60.3318
   859.0000    -46.7175     89.7417     15.2611      6.7728     18.6309     -4.6828     61.0860
   859.5000    -45.2689     85.8150     15.1143      6.7729     18.2634     -2.4169     61.8401
   860.0000    -43.9651     85.2870     14.9678      6.7731     19.3708     -3.6254     61.8401
   860.5000    -42.9507     87.0449     14.6000      6.7732     19.0995     -0.7553     62.5943
   861.0000    -42.2257     89.0851     14.1581      6.7734     16.8660      6.1934     65.6109
   861.5000    -41.6454     90.8632     13.4207      6.7736     16.1295     12.5378     67.8733
   862.0000    -41.2098     92.1832     12.8951      6.7737     17.0156     14.1994     70.1357
   862.5000    -41.6546     93.5739     12.4508      6.7739     16.1322     15.7100     72.3982
   863.0000    -41.7859     92.6180     12.1688      6.7891     15.6171     18.1269     75.4148
   863.5000    -41.9289     92.3164     12.0223      6.7893     15.3233     19.7885     77.6772
   864.0000    -41.9274     92.9971     12.0238      6.7894     15.1768     17.2205     78.4314
   864.5000    -42.2155     93.4510     12.1727      6.7896     15.0308     12.0846     77.6772
   865.0000    -42.3591     93.6028     12.4693      6.7897     15.0320     14.5015     76.9231
   865.5000    -42.3574     93.2259     12.6182      6.7899     15.3355     13.8973     76.9231
   866.0000    -42.3560     92.4714     12.6933      6.7900     15.1821     19.4864     76.1689
   866.5000    -42.7988     91.8679     12.7684      6.7902     14.8143     18.1269     75.4148
   867.0000    -42.7870     91.3400     12.9173      6.7903     15.2583     19.0332     74.6606
   867.5000    -42.7856     90.5099     12.9186      6.7905     15.7020     21.7523     73.1523
   868.0000    -42.6395     89.8309     12.9200      6.7906     15.9979     17.2205     73.1523
   868.5000    -42.4933     89.6049     12.9212      6.7908     14.8929     10.2719     73.1523
   869.0000    -42.3472     90.0590     12.8482      6.7909     15.0419      7.0997     73.1523
   869.5000    -42.3458     90.1353     12.8497      6.7911     15.5593      7.2508     73.1523
   870.0000    -42.3444     89.9094     12.8509      6.7913     15.8555     10.0907     73.9065
   870.5000    -42.4877     90.0612     12.7780      6.7914     15.8493     13.1420     73.9065
   871.0000    -42.7757     89.9865     12.7056      6.7915     15.4157     14.6818     74.6606
   871.5000    -43.2081     89.6851     12.6329      6.7766     15.1219     13.0633     75.4148
   872.0000    -43.6409     89.4593     12.4815      6.7767     15.0490      8.9124     75.4148
   872.5000    -43.7846     89.1579     12.3399      6.7769     14.9768     12.1675     76.1689
   873.0000    -43.7828     89.3097     12.1934      6.7770     14.9780     12.7976     77.6772
   873.5000    -43.6367     90.0657     12.0469      6.7772     14.9792     16.1461     78.4314
   874.0000    -43.6353     90.8973     11.9743      6.7773     14.9804     17.8248     79.1855
   874.5000    -43.6339     91.4267     11.9019      6.7775     14.9816     16.2118     79.9397
   875.0000    -43.4877     91.2764     11.9031      6.7776     14.9828     14.4512     79.9397
   875.5000    -43.4860     91.1261     11.9782      6.7778     15.1389     13.8234     80.6938
   876.0000    -43.6293     92.4358     12.2009      6.7931     15.2805      7.1963     79.1855
   876.5000    -44.0621     92.8648     12.7191      6.7932     15.5767     -0.7225     77.6772
   877.0000    -44.3504     91.8435     13.3998      6.7933     16.0941     -2.1380     75.4148
   877.5000    -44.7828     90.3615     14.3095      6.7935     17.2752     -2.8319     71.5683
