~Version Information
 VERS. 2.0                             : CWLS Log ASCII Standard - Version 2.0
 WRAP. NO                              : One line per depth step
 PROG.                                 : SeisWare LAS Export
#
~Well Information
#MNEM.UNIT     DATA                    : DESCRIPTION
#----.----     ---------               : -----------------
 STRT.F          80.0000               : Start Depth
 STOP.F        1000.0000               : End Depth
 STEP.F           0.5000               : Depth Increment
 NULL.          -999.250               : Null Value
 WELL.         64-S-11                 : Common Well Name
 UWI .         490250634800            : Unique Well ID
 FLD .         Teapot Dome             : Field Name
 PROV.         Wyoming                 : Province / State
#
~Parameter Information
#MNEM.UNIT     VALUE                   : DESCRIPTION
#----.----     ---------               : -----------------
 EREF.F        5221.0000               : Elevation of Depth Reference
 DREF.         KB                      : Depth Reference
 EGL .F        5216.0000               : Ground Level Elevation
 EKB .F        5221.0000               : Kelly Bushing Elevation
#
~Other Information
# SeisWare LAS Export
#
~Curve Information
#MNEM.UNIT        API CODE             : CURVE DESCRIPTION
#----.----        ---------            : -----------------
 DEPT.F                                : Depth
 SPR .MV                               : SPONTANEOUS POTENTIAL FROM RES.
 DT  .US/F                             : INTERVAL TRANSIT TIME
 ILD .OHMM                             : INDUCTION LOG DEEP
 CALS.IN                               : CALIPER FROM SONIC LOG
 ASN .OHMM                             : AMPLIFIED SHORT NORMAL 16"
 GR  .GAPI                             : GAMMA RAY
 CILD.MMHO                             : CONDUCTIVITY INDUCTION LOG DEEP
#
~A     DEPT         SPR          DT         ILD        CALS         ASN          GR        CILD
# ...
   626.0000    -51.3628    104.3116      6.9354      6.7773      7.7393     84.6928    145.4956
   626.5000    -51.3572    104.4657      6.9390      6.7772      7.7548     81.6510    146.2142
   627.0000    -51.2069    104.6953      6.9419      6.7921      7.7851     86.9255    146.9381
   627.5000    -50.9045    104.8494      6.8703      6.7920      7.8155     91.7438    146.9080
   628.0000    -50.6165    104.8524      6.7986      6.7918      7.8607     84.7955    147.6261
   628.5000    -50.4650    104.9302      6.7270      6.7917      7.7992     85.9450    147.5968
   629.0000    -50.4593    104.8576      6.7306      6.8067      7.7281     87.0966    147.5675
   629.5000    -50.4537    104.7851      6.7335      6.8065      7.6691     85.0882    147.5382
   630.0000    -50.3033    104.4868      6.7364      6.8063      7.6251     83.4743    147.5089
   630.5000    -50.1530    104.0366      6.7393      6.8062      7.6405     89.1503    147.4796
   631.0000    -50.2935    103.0577      6.7422      6.8060      7.7453     91.6344    147.4503
   631.5000    -50.1417    101.1725      6.8197      6.8059      7.8500     87.4470    147.4208
   632.0000    -50.1360    106.4625      6.8232      6.8057      7.9552     76.3807    147.3906
   632.5000    -50.1303    106.1634      6.9006      6.8056      8.0615     70.3349    147.3550
   633.0000    -50.1234    105.4111      6.9780      6.8054      8.1196     70.4990    145.8174
   633.5000    -50.1178    104.9610      7.0554      6.8053      8.0458     76.5363    145.0339
   634.0000    -50.1121    109.8733      7.1328      6.8051      8.0465     72.7613    143.4963
   634.5000    -50.1065    110.4043      7.2102      6.8050      8.1512     75.6329    141.9587
   635.0000    -49.9562    109.5772      7.2131      6.8048      8.2709     75.4834    141.1752
   635.5000    -49.8058    110.6376      7.2906      6.7895      8.3459     75.6360    139.6376
   636.0000    -49.8002    114.1905      7.3687      6.7894      8.3762     76.9970    138.8537
   636.5000    -49.6498    105.4322      7.4461      6.7892      8.3768     83.1919    138.8175
   637.0000    -49.6440    105.5107      7.4490      6.7891      8.3775     79.8701    138.7882
   637.5000    -49.6371    102.8702      7.4519      6.7889      8.3630     78.9277    137.2506
   638.0000    -49.4868    103.1753      7.4548      6.7888      8.3638     80.8360    135.7130
   638.5000    -49.3364    103.4049      7.5322      6.7886      8.2453     72.7750    135.6837
   639.0000    -49.1861    103.4835      7.5351      6.8037      8.2756     73.6828    134.9003
   639.5000    -49.1805    103.1088      7.3889      6.8035      8.3804     73.8539    134.8709
   640.0000    -49.0301    101.2236      7.2428      6.8033      8.6191     70.9668    135.5958
   640.5000    -49.0245     99.5650      7.1712      6.8032      8.4356     63.5665    137.8289
   641.0000    -48.5847     99.4925      7.1003      6.8030      8.0645     59.9427    139.3079
   641.5000    -48.2706     99.4199      6.9541      6.8029      8.3084     54.2040    141.5410
   642.0000    -47.8484     99.2709      6.8818      6.8027      8.7107     61.0031    145.2751
   642.5000    -47.6981     99.0483      6.8101      6.8026      7.9524     82.4548    148.2624
   643.0000    -47.5477     99.9575      6.5902      6.8024      7.7298     84.8732    150.4955
   643.5000    -47.3974    103.9693      6.3649      6.7871      7.6262     83.8169    153.4828
   644.0000    -47.3917    104.1179      6.2234      6.7870      7.5375     87.8974    155.7160
   644.5000    -47.5322    104.2049      6.2270      6.7717      7.4633     85.0288    157.9491
   645.0000    -47.3805    104.3605      6.3044      6.7716      7.3581     86.8430    157.9186
   645.5000    -47.3748    104.4290      6.3073      6.7714      7.2864     88.8083    156.3748
   646.0000    -47.3690    104.4190      6.3847      6.7561      7.3168     90.3203    154.0831
   646.5000    -47.6530    104.0137      6.4621      6.7560      7.4810     88.9620    153.2996
   647.0000    -47.9368    102.7770      6.6141      6.7558      7.6602     89.7191    151.7620
   647.5000    -48.0759    101.4960      6.6915      6.7556      7.8393     82.4699    150.9786
   648.0000    -48.0688    100.2906      6.7820      6.7555      8.0036     77.1844    150.1951
   648.5000    -48.3541    100.3691      6.9215      6.7553      7.9446     82.0198    147.1492
   649.0000    -48.3470    100.5232      6.9989      6.7704      7.8857     80.0575    145.5358
   649.5000    -48.3414    100.9794      7.0763      6.7702      7.9013     85.4971    142.5584
   650.0000    -48.4805    101.2086      7.1637      6.7700      7.9521     88.6704    140.9173
   650.5000    -48.3062    101.8891      7.2297      6.7715      8.0220     76.4022    139.5503
   651.0000    -48.1319    101.6633      7.2957      6.7761      8.1117     77.6495    138.1833
   651.5000    -48.0300    101.0598      7.3160      6.7808      8.2017     73.3321    137.1065
   652.0000    -48.3125    100.1542      7.3958      6.7854      8.5000     75.2809    135.6202
   652.5000    -48.3069    100.2305      7.4001      6.7867      8.5603     74.9394    134.0827
   653.0000    -48.2999    100.4578      7.4789      6.8021      8.4396     75.0942    134.0536
   653.5000    -48.2943    100.6852      7.4833      6.7873      8.3833     75.3993    134.7858
   654.0000    -48.2887    100.9880      7.4120      6.7860      8.3692     79.4809    134.7494
   654.5000    -48.2831    101.3664      7.3429      6.7728      8.3252     78.2747    136.2285
   655.0000    -48.2775    101.7448      7.3472      6.7731      8.2962     83.2633    137.7076
   655.5000    -48.4166    102.1987      7.2770      6.7734      8.2374     83.7187    138.4326
   656.0000    -48.4110    102.5014      7.1323      6.7737      8.2083     80.7005    139.9117
   656.5000    -48.6949    101.0673      7.0621      6.7740      8.1793     84.3297    140.6367
   657.0000    -48.8340    100.0862      6.9919      6.7743      8.1503     87.8070    142.1158
   657.5000    -48.9731    101.0688      6.9217      6.7594      8.1363     89.4716    143.5877
   658.0000    -48.9661    103.1844      6.9271      6.7446      8.1219     86.7556    143.5585
   658.5000    -48.9605    103.6383      6.9315      6.7298      8.0931     80.2623    143.5293
   659.0000    -48.9549    104.2433      6.8613      6.7150      8.0787     94.0123    143.4037
   659.5000    -48.9493    106.8120      6.9412      6.7001      8.0796     97.0364    141.9554
   660.0000    -48.9435    108.7765      6.9455      6.6853      8.0962     91.6014    139.6638
   660.5000    -48.9368    108.3241      7.0989      6.6857      8.2152     82.6920    137.3722
   661.0000    -48.9312    106.1345      7.2522      6.6860      8.3945     81.7886    135.0806
   661.5000    -49.0717    104.7002      7.4056      6.6711      8.5291     78.4683    133.5431
   662.0000    -49.0647    102.8127      7.6334      6.6715      8.7084     76.6586    129.7432
   662.5000    -48.9144    101.0008      7.8614      6.6718      8.8728     65.6344    127.3881
   663.0000    -48.9088    100.0952      8.0903      6.6720      9.0521     67.4859    124.3985
   663.5000    -48.9030     99.4162      8.3181      6.6875      9.2622     71.1268    121.3528
   664.0000    -48.8962     98.8883      8.4715      6.6878      9.4304     69.1674    117.5529
   664.5000    -48.8906     98.4358      8.7739      6.7032      9.6050     54.9213    114.5071
   665.0000    -48.8850     97.9079      9.0017      6.7035      9.7546     66.8586    111.4613
   665.5000    -48.8794     97.4555      9.2296      6.7038     10.0022     68.9764    108.4156
   666.0000    -48.8738     97.0030      9.3861      6.7041     10.4185     64.4477    106.0936
   666.5000    -48.8682     96.6262      9.6119      6.7196     10.5902     55.9914    102.3168
   667.0000    -48.8625     96.2493      9.7653      6.7199     10.8141     57.9582    100.0252
   667.5000    -48.7109     95.9479      9.9186      6.7202     10.9636     57.5080     99.2418
