~Version Information
 VERS. 2.0                             : CWLS Log ASCII Standard - Version 2.0
 WRAP. NO                              : One line per depth step
 PROG.                                 : SeisWare LAS Export
#
~Well Information
#MNEM.UNIT     DATA                    : DESCRIPTION
#----.----     ---------               : -----------------
 STRT.F          80.0000               : Start Depth
 STOP.F        1000.0000               : End Depth
 STEP.F           0.5000               : Depth Increment
 NULL.          -999.250               : Null Value
 WELL.         64-S-11                 : Common Well Name
 UWI .         490250634800            : Unique Well ID
 FLD .         Teapot Dome             : Field Name
 PROV.         Wyoming                 : Province / State
#
~Parameter Information
#MNEM.UNIT     VALUE                   : DESCRIPTION
#----.----     ---------               : -----------------
 EREF.F        5221.0000               : Elevation of Depth Reference
 DREF.         KB                      : Depth Reference
 EGL .F        5216.0000               : Ground Level Elevation
 EKB .F        5221.0000               : Kelly Bushing Elevation
#
~Other Information
# SeisWare LAS Export
#
~Curve Information
#MNEM.UNIT        API CODE             : CURVE DESCRIPTION
#----.----        ---------            : -----------------
 DEPT.F                                : Depth
 SPR .MV                               : SPONTANEOUS POTENTIAL FROM RES.
 DT  .US/F                             : INTERVAL TRANSIT TIME
 ILD .OHMM                             : INDUCTION LOG DEEP
 CALS.IN                               : CALIPER FROM SONIC LOG
 ASN .OHMM                             : AMPLIFIED SHORT NORMAL 16"
 GR  .GAPI                             : GAMMA RAY
 CILD.MMHO                             : CONDUCTIVITY INDUCTION LOG DEEP
#
~A     DEPT         SPR          DT         ILD        CALS         ASN          GR        CILD
# ...
   920.0000    -32.4168     92.0999      9.5407      6.7912     10.9953     21.4502    105.8838
   920.5000    -32.2721     92.0251      9.3943      6.7918     10.9246     28.4586    107.3993
   921.0000    -32.1273     91.7992      9.3213      6.7923     10.9291     36.7468    108.1607
   921.5000    -32.1273     91.4979      9.2487      6.7928     10.8574     34.9698    108.9221
   922.0000    -31.9826     91.4229      9.1760      6.7933     10.7133     35.0453    108.9294
   922.5000    -31.6932     91.6504      9.2519      6.7939     10.7169     33.2326    108.9366
   923.0000    -31.4038     91.7267      9.2533      6.7944     10.7214     37.7644    108.9457
   923.5000    -30.8249     91.7274      9.2551      6.7949     10.7249     39.8792    108.9529
   924.0000    -31.1143     91.6525      9.3306      6.7954     10.7285     29.9094    108.9602
   924.5000    -31.5485     91.6534      9.4061      6.7960     10.7321     36.1027    108.9674
   925.0000    -31.8379     91.6542      9.4816      6.7965     10.7357     33.0816    108.9747
   925.5000    -31.9826     91.6549      9.5571      6.7970     10.8135     37.4622    108.2278
   926.0000    -31.9826     91.6557      9.4844      6.7977     10.8172     37.7644    107.4809
   926.5000    -31.9826     91.6564      9.4859      6.7982     10.9702     32.7795    105.9816
   927.0000    -32.1273     91.6572      9.4877      6.7987     11.0480     25.2266    104.4806
   927.5000    -32.1273     91.7334      9.5632      6.7993     11.2711     31.4199    102.9777
   928.0000    -32.2721     92.1118      9.7868      6.7845     11.5012     31.4199     99.9702
   928.5000    -32.4168     92.7924     10.0104      6.7852     11.7277     27.6435     96.9608
   929.0000    -32.8509     94.0771     10.3082      6.7705     12.0285     21.9033     92.9867
   929.5000    -33.5745     94.9842     10.8440      6.7559     12.4035     20.3927     86.4191
   930.0000    -34.9155     95.9668     11.6447      6.7261     12.8579     19.0332     81.1473
   930.5000    -37.4819     97.0250     12.3869      6.6964     13.6002      9.9698     77.3838
   931.0000    -38.7844     98.2342     12.9068      6.6517     14.2725      8.6103     74.3744
   931.5000    -39.9421     99.1413     13.4268      6.6218     14.9447     11.6314     72.1191
   932.0000    -41.5340     99.5952     14.0208      6.5921     15.6169     12.8399     69.1099
   932.5000    -43.8495     99.9736     14.4716      6.5776     16.2891      7.7039     66.8565
   933.0000    -46.3116    100.2009     14.9869      6.5781     16.8881      5.4381     63.8472
   933.5000    -47.6359    100.3534     15.3587      6.5787     17.5716      6.9486     62.3443
   934.0000    -48.3357    100.3535     15.5824      6.5943     18.0092      2.7190     60.8432
   934.5000    -45.1520    100.2734     15.7320      6.5948     18.3100      2.2300     58.5899
   935.0000    -43.5601     99.7281     15.8075      6.6105     18.4621      4.9849     57.0888
   935.5000    -42.5470     98.6715     15.7329      6.6261     18.5401      3.0953     57.8520
   936.0000    -40.9551     94.4027     15.4403      6.6267     18.2473      2.2659     59.3676
   936.5000    -39.7673     91.7182     15.3673      6.6423     17.9537      6.1934     60.1289
   937.0000    -38.3502     90.9171     15.1468      6.6580     18.2544      2.5680     60.1362
   937.5000    -37.4819     90.3193     15.0001      6.6585     18.7038      3.9275     60.8976
   938.0000    -37.6266     89.8610     14.5571      6.6590     18.5588      2.5680     62.4132
   938.5000    -38.4949     90.3905     13.9659      6.6596     17.6614     -3.4743     64.6846
   939.0000    -39.2185     93.9430     13.6603      6.6450     17.3029      2.1148     69.2168
   939.5000    -39.6589     94.8537     13.0802      6.6304     17.0836      6.6465     72.9948
   940.0000    -39.5080     95.5437     12.7113      6.6309     16.7166     18.2779     76.7727
   940.5000    -38.0608     96.0654     12.4164      6.6314     16.3487     21.1480     77.5341
   941.0000    -38.2055     96.3610     12.2694      6.6471     15.9808     25.9819     76.7872
   941.5000    -39.0738     96.6002     12.2711      6.6778     15.7615     29.0030     75.2880
   942.0000    -39.6527     96.8298     12.4207      6.6935     15.7652     24.1692     75.2952
   942.5000    -37.9161     97.0432     12.6447      6.7092     15.9181     23.5650     74.5465
   943.0000    -37.4819     96.7418     12.9424      6.7248     15.9960     27.6435     73.0455
   943.5000    -37.7713     96.2139     13.0920      6.7405     16.2225     20.9970     72.3002
   944.0000    -37.7713     95.0062     13.3897      6.7410     16.5232     10.8761     71.5535
   944.5000    -37.1925     91.9102     13.3911      6.7566     16.8240      8.1571     71.5625
   945.0000    -36.3242     89.1920     13.3926      6.7572     16.5231      1.0574     70.8156
   945.5000    -35.1664     87.9843     13.3943      6.7577     16.0882      1.8127     68.5604
   946.0000    -34.0087     87.0787     13.2476      6.7582     16.0926      9.9698     71.5843
   946.5000    -34.8770     86.9282     12.7305      6.7588     15.9476     17.8248     74.6081
   947.0000    -35.4559     88.2886     12.2875      6.7622     15.4312     26.2840     78.3861
   947.5000    -35.7453     91.3105     11.9186      6.7751     15.0633     29.4562     81.4117
   948.0000    -36.0347     94.0303     11.4716      6.7756     14.6152     27.3414     83.6814
   948.5000    -36.1795     95.2395     11.0329      6.7912     13.6597     21.9033     85.9511
   949.0000    -36.1795     95.0892     10.7380      6.7918     13.5138     29.0030     88.2208
   949.5000    -36.0347     94.6368     10.5913      6.7923     13.2945     31.4199     89.7363
   950.0000    -35.6430     93.7312     10.4442      6.7928     13.2100     25.6798     90.4977
   950.5000    -34.3012     92.8256     10.4459      6.7934     13.1243     22.6586     91.6675
   951.0000    -34.3040     91.8668     10.4474      6.7939     13.0386     19.9371     92.8373
   951.5000    -34.6000     91.1679     10.4491      6.7944     13.0019     20.5438     93.5376
   952.0000    -35.0333     91.1694     10.4505      6.7949     12.8535     19.3353     94.2991
   952.5000    -34.8920     91.3219     10.4520      6.8106     12.7051     20.8459     94.3064
   953.0000    -34.7494     91.3990     10.4534      6.8111     12.7052     22.6586     93.5596
   953.5000    -34.6082     91.6271     10.4549      6.8116     12.7054     17.5227     93.5671
   954.0000    -34.3215     91.8551     10.4563      6.8121     12.6312     22.3565     93.5761
   954.5000    -34.0349     92.2343     10.4578      6.8127     12.6313     23.2628     93.5834
   955.0000    -34.0377     92.6134     10.4595      6.8133     12.6315     26.5861     93.5908
   955.5000    -34.0405     92.9926     10.4610      6.8137     12.6317     22.2054     93.5981
   956.0000    -34.0588     93.3717     10.4624      6.8143     12.5575     21.6466     93.6055
   956.5000    -34.3363     93.6753     10.4638      6.8148     12.5577     19.7885     93.6128
   957.0000    -34.3391     93.7520     10.4653      6.8153     12.4835     17.8248     93.6201
   957.5000    -33.7630     93.2251     10.4667      6.8006     12.4094     16.4653     93.6275
   958.0000    -33.4757     92.8490     10.3941      6.8012     12.2609     11.4804     93.6350
   958.5000    -33.1898     92.4728     10.3214      6.8018     12.1868     10.2719     93.6440
   959.0000    -32.9032     92.3233     10.2488      6.7870     12.1869     11.9335     93.6513
   959.5000    -32.6165     92.3248     10.1762      6.7726     12.1128     11.4804     94.4128
   960.0000    -32.4746     92.4773     10.1779      6.7731     12.1130     11.3545     94.4202
   960.5000    -32.4781     92.5544     10.1794      6.7736     12.1131     19.2107     94.4275
   961.0000    -32.7704     92.5509     10.1064      6.7741     12.0389     16.0121     95.1890
   961.5000    -33.0626     92.3233     10.1082      6.7747     12.0391     13.8973     95.9505
