~Version Information
 VERS. 2.0                             : CWLS Log ASCII Standard - Version 2.0
 WRAP. NO                              : One line per depth step
 PROG.                                 : SeisWare LAS Export
#
~Well Information
#MNEM.UNIT     DATA                    : DESCRIPTION
#----.----     ---------               : -----------------
 STRT.F          80.0000               : Start Depth
 STOP.F        1000.0000               : End Depth
 STEP.F           0.5000               : Depth Increment
 NULL.          -999.250               : Null Value
 WELL.         64-S-11                 : Common Well Name
 UWI .         490250634800            : Unique Well ID
 FLD .         Teapot Dome             : Field Name
 PROV.         Wyoming                 : Province / State
#
~Parameter Information
#MNEM.UNIT     VALUE                   : DESCRIPTION
#----.----     ---------               : -----------------
 EREF.F        5221.0000               : Elevation of Depth Reference
 DREF.         KB                      : Depth Reference
 EGL .F        5216.0000               : Ground Level Elevation
 EKB .F        5221.0000               : Kelly Bushing Elevation
#
~Other Information
# SeisWare LAS Export
#
~Curve Information
#MNEM.UNIT        API CODE             : CURVE DESCRIPTION
#----.----        ---------            : -----------------
 DEPT.F                                : Depth
 SPR .MV                               : SPONTANEOUS POTENTIAL FROM RES.
 DT  .US/F                             : INTERVAL TRANSIT TIME
 ILD .OHMM                             : INDUCTION LOG DEEP
 CALS.IN                               : CALIPER FROM SONIC LOG
 ASN .OHMM                             : AMPLIFIED SHORT NORMAL 16"
 GR  .GAPI                             : GAMMA RAY
 CILD.MMHO                             : CONDUCTIVITY INDUCTION LOG DEEP
#
~A     DEPT         SPR          DT         ILD        CALS         ASN          GR        CILD
# ...
   206.0000    -73.6775   -999.2500      5.5236   -999.2500      5.8933   -999.2500    193.7705
   206.5000    -73.6734   -999.2500      5.5254   -999.2500      5.6307   -999.2500    193.7670
   207.0000    -73.5239   -999.2500      5.6012   -999.2500      5.7818   -999.2500    193.0091
   207.5000    -73.5194   -999.2500      5.6975   -999.2500      5.9592   -999.2500    191.4969
   208.0000    -73.6604   -999.2500      5.7530   -999.2500      6.0221   -999.2500    190.2464
   208.5000    -73.7012   -999.2500      5.8769   -999.2500      6.0655   -999.2500    188.7142
   209.0000    -73.9419   -999.2500      6.0037   -999.2500      6.0944   -999.2500    186.9205
   209.5000    -74.2270   -999.2500      6.0550   -999.2500      6.1238   -999.2500    183.9398
   210.0000    -74.4219   -999.2500      6.0568   -999.2500      6.1796   -999.2500    180.7692
   210.5000    -74.5169   -999.2500      6.1324   -999.2500      6.3189   -999.2500    177.1455
   211.0000    -74.6502   -999.2500      6.1340   -999.2500      6.4563   -999.2500    177.8954
   211.5000    -74.5847   -999.2500      6.1356   -999.2500      6.4984   -999.2500    177.8922
   212.0000    -74.4963   -999.2500      6.1042   -999.2500      6.4839   -999.2500    177.8884
   212.5000    -74.4915   -999.2500      6.0547   -999.2500      6.4509   -999.2500    177.8842
   213.0000    -74.4185   -999.2500      5.8424   -999.2500      6.4103   -999.2500    177.1267
   213.5000    -74.3147   -999.2500      5.7325   -999.2500      6.3960   -999.2500    176.9670
   214.0000    -74.0431   -999.2500      5.6087   -999.2500      6.3965   -999.2500    176.3648
   214.5000    -73.8169   -999.2500      5.4748   -999.2500      6.4027   -999.2500    176.3612
   215.0000    -73.7131   -999.2500      5.4762   -999.2500      6.4122   -999.2500    175.4023
   215.5000    -73.4497   -999.2500      5.4777   -999.2500      6.4574   -999.2500    174.8453
   216.0000    -73.3004   -999.2500      5.4792   -999.2500      6.5233   -999.2500    174.3590
   216.5000    -73.1509   -999.2500      5.6001   -999.2500      6.5992   -999.2500    174.0837
   217.0000    -73.1465   -999.2500      5.7798   -999.2500      6.6670   -999.2500    173.3258
   217.5000    -73.1422   -999.2500      5.8557   -999.2500      6.6742   -999.2500    173.3214
   218.0000    -73.2839   -999.2500      5.8571   -999.2500      6.6311   -999.2500    173.3183
   218.5000    -73.2787   -999.2500      5.8586   -999.2500      6.5939   -999.2500    173.3144
   219.0000    -73.4195   -999.2500      5.8601   -999.2500      6.5405   -999.2500    173.3102
   219.5000    -73.4705   -999.2500      5.8619   -999.2500      6.5203   -999.2500    173.6438
   220.0000    -73.5560   -999.2500      5.7887   -999.2500      6.5357   -999.2500    174.8118
   220.5000    -73.5509   -999.2500      5.7839   -999.2500      6.5362   -999.2500    177.0697
   221.0000    -73.5472   -999.2500      5.7173   -999.2500      6.4692   -999.2500    178.9670
   221.5000    -73.6883   -999.2500      5.6443   -999.2500      6.3860   -999.2500    181.2707
   222.0000    -73.6831   -999.2500      5.5713   -999.2500      6.2995   -999.2500    183.8459
   222.5000    -73.6792   -999.2500      5.4987   -999.2500      6.0940   -999.2500    186.2053
   223.0000    -73.6749   -999.2500      5.5000   -999.2500      6.0153   -999.2500    187.9915
   223.5000    -73.6702   -999.2500      5.5015   -999.2500      5.9585   -999.2500    189.8679
   224.0000    -73.5211   -999.2500      5.5031   -999.2500      5.9133   -999.2500    190.9000
   224.5000    -73.4831   -999.2500      5.5465   -999.2500      5.8384   -999.2500    190.3783
   225.0000    -73.3670   -999.2500      5.5803   -999.2500      5.7949   -999.2500    189.1026
   225.5000    -73.2755   -999.2500      5.6563   -999.2500      5.9072   -999.2500    187.5898
   226.0000    -73.1718   -999.2500      5.7783   -999.2500      6.0083   -999.2500    186.8326
   226.5000    -73.0638   -999.2500      5.8825   -999.2500      6.0802   -999.2500    185.2299
   227.0000    -72.9144   -999.2500      5.9583   -999.2500      6.1551   -999.2500    183.0537
   227.5000    -72.7649   -999.2500      5.9601   -999.2500      6.1815   -999.2500    179.8076
   228.0000    -72.7606   -999.2500      5.9345   -999.2500      6.2323   -999.2500    176.8324
   228.5000    -73.0457   -999.2500      5.8851   -999.2500      6.3053   -999.2500    174.7469
   229.0000    -73.1872   -999.2500      5.8155   -999.2500      6.3771   -999.2500    174.3614
   229.5000    -73.3398   -999.2500      5.7426   -999.2500      6.4783   -999.2500    175.1473
   230.0000    -73.4688   -999.2500      5.6622   -999.2500      6.5596   -999.2500    177.7523
   230.5000    -73.5440   -999.2500      5.5225   -999.2500      6.4506   -999.2500    180.0917
   231.0000    -73.4601   -999.2500      5.5238   -999.2500      5.9917   -999.2500    183.5669
   231.5000    -73.3101   -999.2500      5.4508   -999.2500      6.0103   -999.2500    186.7909
   232.0000    -73.1611   -999.2500      5.4525   -999.2500      6.0792   -999.2500    189.6833
   232.5000    -73.1289   -999.2500      5.3795   -999.2500      6.1004   -999.2500    192.7412
   233.0000    -73.0069   -999.2500      5.3810   -999.2500      5.9521   -999.2500    195.8295
   233.5000    -72.8577   -999.2500      5.3825   -999.2500      5.8484   -999.2500    198.8416
   234.0000    -72.7083   -999.2500      5.4271   -999.2500      5.8027   -999.2500    199.1101
   234.5000    -72.7037   -999.2500      5.4598   -999.2500      5.7136   -999.2500    199.5891
   235.0000    -72.5544   -999.2500      5.5358   -999.2500      5.7083   -999.2500    198.8305
   235.5000    -72.5500   -999.2500      5.5372   -999.2500      5.8003   -999.2500    198.5105
   236.0000    -72.5457   -999.2500      5.6369   -999.2500      5.9647   -999.2500    197.1544
   236.5000    -72.3954   -999.2500      5.7634   -999.2500      6.0594   -999.2500    194.2944
   237.0000    -72.2468   -999.2500      5.8396   -999.2500      5.9844   -999.2500    192.4209
   237.5000    -72.2363   -999.2500      5.8407   -999.2500      5.8370   -999.2500    190.2653
   238.0000    -72.0922   -999.2500      5.8423   -999.2500      5.9119   -999.2500    188.2500
   238.5000    -72.0885   -999.2500      5.8440   -999.2500      6.0870   -999.2500    186.3311
   239.0000    -72.0841   -999.2500      5.8452   -999.2500      6.2719   -999.2500    185.8094
   239.5000    -72.0793   -999.2500      5.7722   -999.2500      6.2555   -999.2500    184.4681
   240.0000    -72.0755   -999.2500      5.6996   -999.2500      6.1519   -999.2500    184.0121
   240.5000    -72.2382   -999.2500      5.6648   -999.2500      6.1522   -999.2500    183.7066
   241.0000    -72.5018   -999.2500      5.6278   -999.2500      6.1535   -999.2500    183.7028
   241.5000    -72.5735   -999.2500      5.5552   -999.2500      6.1978   -999.2500    182.9449
   242.0000    -72.8137   -999.2500      5.5566   -999.2500      6.2195   -999.2500    182.9412
   242.5000    -72.9245   -999.2500      5.5580   -999.2500      6.2452   -999.2500    182.9374
   243.0000    -72.9202   -999.2500      5.6340   -999.2500      6.2736   -999.2500    182.9330
   243.5000    -72.9158   -999.2500      5.6354   -999.2500      6.2964   -999.2500    183.6840
   244.0000    -72.9113   -999.2500      5.7113   -999.2500      6.3041   -999.2500    183.6803
   244.5000    -72.6703   -999.2500      5.7872   -999.2500      6.2600   -999.2500    184.4301
   245.0000    -72.5665   -999.2500      5.8370   -999.2500      6.2133   -999.2500    184.7787
   245.5000    -72.4630   -999.2500      5.8646   -999.2500      6.1634   -999.2500    186.0471
   246.0000    -72.3127   -999.2500      5.8661   -999.2500      6.1125   -999.2500    188.1897
   246.5000    -72.2552   -999.2500      5.8678   -999.2500      6.0538   -999.2500    191.6402
   247.0000    -72.1597   -999.2500      5.7947   -999.2500      5.9988   -999.2500    194.9703
   247.5000    -72.0095   -999.2500      5.7217   -999.2500      5.9489   -999.2500    192.7034
