~Version Information
 VERS. 2.0                             : CWLS Log ASCII Standard - Version 2.0
 WRAP. NO                              : One line per depth step
 PROG.                                 : SeisWare LAS Export
#
~Well Information
#MNEM.UNIT     DATA                    : DESCRIPTION
#----.----     ---------               : -----------------
 STRT.F          80.0000               : Start Depth
 STOP.F        1000.0000               : End Depth
 STEP.F           0.5000               : Depth Increment
 NULL.          -999.250               : Null Value
 WELL.         64-S-11                 : Common Well Name
 UWI .         490250634800            : Unique Well ID
 FLD .         Teapot Dome             : Field Name
 PROV.         Wyoming                 : Province / State
#
~Parameter Information
#MNEM.UNIT     VALUE                   : DESCRIPTION
#----.----     ---------               : -----------------
 EREF.F        5221.0000               : Elevation of Depth Reference
 DREF.         KB                      : Depth Reference
 EGL .F        5216.0000               : Ground Level Elevation
 EKB .F        5221.0000               : Kelly Bushing Elevation
#
~Other Information
# SeisWare LAS Export
#
~Curve Information
#MNEM.UNIT        API CODE             : CURVE DESCRIPTION
#----.----        ---------            : -----------------
 DEPT.F                                : Depth
 SPR .MV                               : SPONTANEOUS POTENTIAL FROM RES.
 DT  .US/F                             : INTERVAL TRANSIT TIME
 ILD .OHMM                             : INDUCTION LOG DEEP
 CALS.IN                               : CALIPER FROM SONIC LOG
 ASN .OHMM                             : AMPLIFIED SHORT NORMAL 16"
 GR  .GAPI                             : GAMMA RAY
 CILD.MMHO                             : CONDUCTIVITY INDUCTION LOG DEEP
#
~A     DEPT         SPR          DT         ILD        CALS         ASN          GR        CILD
    80.0000    -82.7282   -999.2500      3.9726   -999.2500      1.0325   -999.2500    186.7293
    80.5000    -82.7250   -999.2500      4.1994   -999.2500      1.0334   -999.2500    188.9781
    81.0000    -82.7029   -999.2500      4.4262   -999.2500      1.0340   -999.2500    191.9811
    81.5000    -82.5721   -999.2500      4.5526   -999.2500      1.0345   -999.2500    193.9832
    82.0000    -82.5031   -999.2500      4.7292   -999.2500      1.0500   -999.2500    195.7315
    82.5000    -82.4032   -999.2500      4.8071   -999.2500      1.0804   -999.2500    198.7345
    83.0000    -82.2709   -999.2500      4.8839   -999.2500      1.1631   -999.2500    198.7255
    83.5000    -82.0583   -999.2500      4.9613   -999.2500      1.3960   -999.2500    197.2059
    84.0000    -81.8133   -999.2500      5.0393   -999.2500      1.9602   -999.2500    191.1591
    84.5000    -81.6795   -999.2500      5.0665   -999.2500      2.5743   -999.2500    188.6363
    85.0000    -81.4683   -999.2500      5.1190   -999.2500      3.0208   -999.2500    187.3680
    85.5000    -81.3684   -999.2500      5.2714   -999.2500      5.3399   -999.2500    187.3544
    86.0000    -81.2331   -999.2500      5.2986   -999.2500      6.2010   -999.2500    187.3454
    86.5000    -81.1686   -999.2500      5.3512   -999.2500      6.6401   -999.2500    187.3341
    87.0000    -81.0813   -999.2500      5.3548   -999.2500      6.5620   -999.2500    188.0770
    87.5000    -81.0771   -999.2500      5.4316   -999.2500      5.0825   -999.2500    189.0711
    88.0000    -81.0740   -999.2500      5.4345   -999.2500      3.2619   -999.2500    190.3167
    88.5000    -81.0704   -999.2500      5.5125   -999.2500      0.7453   -999.2500    192.5656
    89.0000    -81.0662   -999.2500      5.5397   -999.2500      0.4395   -999.2500    193.5621
    89.5000    -81.0631   -999.2500      5.5923   -999.2500      1.7641   -999.2500    194.8077
    90.0000    -80.9145   -999.2500      5.5958   -999.2500      5.0775   -999.2500    195.5483
    90.5000    -81.0559   -999.2500      5.5734   -999.2500      5.7426   -999.2500    195.7906
    91.0000    -81.0522   -999.2500      5.5268   -999.2500      5.8971   -999.2500    196.2820
    91.5000    -81.0486   -999.2500      5.4554   -999.2500      5.9609   -999.2500    197.0226
    92.0000    -81.0444   -999.2500      5.3343   -999.2500      6.0321   -999.2500    197.2649
    92.5000    -81.0414   -999.2500      5.0893   -999.2500      5.9584   -999.2500    198.5106
    93.0000    -81.1830   -999.2500      4.8696   -999.2500      5.8754   -999.2500    199.2511
    93.5000    -81.1786   -999.2500      4.7728   -999.2500      5.7473   -999.2500    200.2476
    94.0000    -81.1756   -999.2500      4.5774   -999.2500      5.6328   -999.2500    201.4932
    94.5000    -81.1720   -999.2500      4.5810   -999.2500      5.5094   -999.2500    202.9879
    95.0000    -81.1677   -999.2500      4.6081   -999.2500      5.3617   -999.2500    204.9899
    95.5000    -81.1647   -999.2500      4.7351   -999.2500      5.2031   -999.2500    209.0007
    96.0000    -81.1611   -999.2500      4.8131   -999.2500      5.2202   -999.2500    211.2519
    96.5000    -81.0117   -999.2500      4.8403   -999.2500      5.3438   -999.2500    208.9781
    97.0000    -81.0087   -999.2500      5.0417   -999.2500      5.6513   -999.2500    203.6878
    97.5000    -81.0051   -999.2500      5.1196   -999.2500      5.8539   -999.2500    193.8703
    98.0000    -80.8556   -999.2500      5.1964   -999.2500      6.0729   -999.2500    188.3308
    98.5000    -80.8526   -999.2500      5.2738   -999.2500      6.5162   -999.2500    183.2919
    99.0000    -80.7039   -999.2500      5.3518   -999.2500      6.9420   -999.2500    178.7534
    99.5000    -80.6996   -999.2500      5.3542   -999.2500      7.6696   -999.2500    175.9792
   100.0000    -80.5515   -999.2500      5.3571   -999.2500      9.2659   -999.2500    173.4540
   100.5000    -80.5479   -999.2500      5.3607   -999.2500      8.1963   -999.2500    180.2278
   101.0000    -80.5443   -999.2500      5.3383   -999.2500      6.7125   -999.2500    187.2575
   101.5000    -80.5406   -999.2500      5.2173   -999.2500      6.2835   -999.2500    192.2738
   102.0000    -80.5370   -999.2500      5.0720   -999.2500      6.0225   -999.2500    196.0309
   102.5000    -80.5334   -999.2500      4.9008   -999.2500      5.7917   -999.2500    199.2899
   103.0000    -80.5297   -999.2500      4.7798   -999.2500      5.7043   -999.2500    202.7979
   103.5000    -80.5261   -999.2500      4.8577   -999.2500      5.6351   -999.2500    205.0468
   104.0000    -80.5225   -999.2500      4.8849   -999.2500      5.5851   -999.2500    204.7863
   104.5000    -80.4748   -999.2500      5.0119   -999.2500      5.5708   -999.2500    202.7640
   105.0000    -80.3700   -999.2500      5.1643   -999.2500      5.5756   -999.2500    196.7172
   105.5000    -80.3665   -999.2500      5.2907   -999.2500      5.6167   -999.2500    191.1777
   106.0000    -80.3629   -999.2500      5.4673   -999.2500      5.6980   -999.2500    186.1388
   106.5000    -80.2140   -999.2500      5.6940   -999.2500      5.9684   -999.2500    180.8461
   107.0000    -80.2104   -999.2500      5.7956   -999.2500      6.3030   -999.2500    177.8205
   107.5000    -80.0617   -999.2500      5.9226   -999.2500      6.4666   -999.2500    174.0385
   108.0000    -79.9128   -999.2500      5.9262   -999.2500      6.5274   -999.2500    171.0083
   108.5000    -79.9093   -999.2500      5.8046   -999.2500      6.5280   -999.2500    169.7424
   109.0000    -79.8660   -999.2500      5.6339   -999.2500      6.4965   -999.2500    167.9713
   109.5000    -79.6116   -999.2500      5.4143   -999.2500      6.4221   -999.2500    167.7087
   110.0000    -79.5210   -999.2500      5.2431   -999.2500      6.2322   -999.2500    183.5344
   110.5000    -79.4211   -999.2500      5.1220   -999.2500      6.0849   -999.2500    194.3326
   111.0000    -79.3104   -999.2500      4.9024   -999.2500      5.8496   -999.2500    202.6146
   111.5000    -79.2213   -999.2500      4.8056   -999.2500      5.6834   -999.2500    205.3708
   112.0000    -79.1588   -999.2500      4.6845   -999.2500      5.5770   -999.2500    207.8733
   112.5000    -79.2997   -999.2500      4.6131   -999.2500      5.4936   -999.2500    209.3680
   113.0000    -79.3802   -999.2500      4.6409   -999.2500      5.3875   -999.2500    210.3645
   113.5000    -79.4381   -999.2500      4.7679   -999.2500      5.2890   -999.2500    211.6101
   114.0000    -79.5789   -999.2500      4.9202   -999.2500      5.2547   -999.2500    211.8502
   114.5000    -79.5754   -999.2500      5.0218   -999.2500      5.4637   -999.2500    210.3306
   115.0000    -79.7175   -999.2500      5.2232   -999.2500      5.6141   -999.2500    207.0513
   115.5000    -79.7131   -999.2500      5.3012   -999.2500      5.7136   -999.2500    199.4962
   116.0000    -79.7097   -999.2500      5.4772   -999.2500      5.8078   -999.2500    193.9568
   116.5000    -79.7061   -999.2500      5.6042   -999.2500      5.8679   -999.2500    189.6719
   117.0000    -79.5571   -999.2500      5.7565   -999.2500      5.9304   -999.2500    185.8876
   117.5000    -79.5537   -999.2500      5.8581   -999.2500      5.9882   -999.2500    182.1079
   118.0000    -79.5500   -999.2500      5.9851   -999.2500      6.0329   -999.2500    179.0799
   118.5000    -79.5462   -999.2500      6.1375   -999.2500      6.0852   -999.2500    175.2956
   119.0000    -79.5428   -999.2500      6.1647   -999.2500      6.1834   -999.2500    172.2700
   119.5000    -79.5391   -999.2500      6.2173   -999.2500      6.2496   -999.2500    168.4879
   120.0000    -79.5353   -999.2500      6.2952   -999.2500      6.3284   -999.2500    165.9628
   120.5000    -79.5319   -999.2500      6.1984   -999.2500      6.4679   -999.2500    168.2139
   121.0000    -79.5283   -999.2500      6.1518   -999.2500      6.5564   -999.2500    171.4706
   121.5000    -79.5244   -999.2500      6.0065   -999.2500      6.5215   -999.2500    175.9819
