~Version Information
 VERS. 2.0                             : CWLS Log ASCII Standard - Version 2.0
 WRAP. NO                              : One line per depth step
 PROG.                                 : SeisWare LAS Export
#
~Well Information
#MNEM.UNIT     DATA                    : DESCRIPTION
#----.----     ---------               : -----------------
 STRT.F          80.0000               : Start Depth
 STOP.F        1000.0000               : End Depth
 STEP.F           0.5000               : Depth Increment
 NULL.          -999.250               : Null Value
 WELL.         64-S-11                 : Common Well Name
 UWI .         490250634800            : Unique Well ID
 FLD .         Teapot Dome             : Field Name
 PROV.         Wyoming                 : Province / State
#
~Parameter Information
#MNEM.UNIT     VALUE                   : DESCRIPTION
#----.----     ---------               : -----------------
 EREF.F        5221.0000               : Elevation of Depth Reference
 DREF.         KB                      : Depth Reference
 EGL .F        5216.0000               : Ground Level Elevation
 EKB .F        5221.0000               : Kelly Bushing Elevation
#
~Other Information
# SeisWare LAS Export
#
~Curve Information
#MNEM.UNIT        API CODE             : CURVE DESCRIPTION
#----.----        ---------            : -----------------
 DEPT.F                                : Depth
 SPR .MV                               : SPONTANEOUS POTENTIAL FROM RES.
 DT  .US/F                             : INTERVAL TRANSIT TIME
 ILD .OHMM                             : INDUCTION LOG DEEP
 CALS.IN                               : CALIPER FROM SONIC LOG
 ASN .OHMM                             : AMPLIFIED SHORT NORMAL 16"
 GR  .GAPI                             : GAMMA RAY
 CILD.MMHO                             : CONDUCTIVITY INDUCTION LOG DEEP
#
~A     DEPT         SPR          DT         ILD        CALS         ASN          GR        CILD
# ...
   332.0000    -66.0187   -999.2500      4.9554   -999.2500      4.9741   -999.2500    201.7920
   332.5000    -66.1581   -999.2500      5.0806   -999.2500      5.0972   -999.2500    192.1053
   333.0000    -66.2200   -999.2500      5.2068   -999.2500      5.1652   -999.2500    187.4330
   333.5000    -66.2945   -999.2500      5.2586   -999.2500      5.2373   -999.2500    188.9212
   334.0000    -66.2887   -999.2500      5.2608   -999.2500      5.2626   -999.2500    190.8218
   334.5000    -66.2845   -999.2500      5.2623   -999.2500      5.2337   -999.2500    192.8146
   335.0000    -66.2796   -999.2500      5.2641   -999.2500      5.1529   -999.2500    194.1499
   335.5000    -66.2742   -999.2500      5.1919   -999.2500      5.0858   -999.2500    196.4499
   336.0000    -66.2700   -999.2500      5.1667   -999.2500      5.0357   -999.2500    199.0951
   336.5000    -66.2651   -999.2500      5.0442   -999.2500      4.9417   -999.2500    203.1493
   337.0000    -66.2597   -999.2500      4.8999   -999.2500      4.7750   -999.2500    209.3457
   337.5000    -66.2554   -999.2500      4.7991   -999.2500      4.5821   -999.2500    222.3901
   338.0000    -66.1055   -999.2500      4.6731   -999.2500      4.3964   -999.2500    237.0356
   338.5000    -66.1001   -999.2500      4.3846   -999.2500      4.2411   -999.2500    278.7271
   339.0000    -65.8813   -999.2500      4.0759   -999.2500      4.0620   -999.2500    335.7707
   339.5000    -65.6343   -999.2500      3.6165   -999.2500      3.7316   -999.2500    371.2236
   340.0000    -65.3599   -999.2500      2.8277   -999.2500      3.2756   -999.2500    426.6791
   340.5000    -64.9250   -999.2500      2.2623   -999.2500      2.9754   -999.2500    456.6870
   341.0000    -64.4359   -999.2500      1.7837   -999.2500      3.1349   -999.2500    450.3588
   341.5000    -64.0391   -999.2500      1.9404   -999.2500      3.2773   -999.2500    429.0705
   342.0000    -64.0348   -999.2500      2.5327   -999.2500      3.1640   -999.2500    406.5686
   342.5000    -64.1980   -999.2500      3.2428   -999.2500      2.9212   -999.2500    384.6976
   343.0000    -64.4601   -999.2500      3.8805   -999.2500      3.2642   -999.2500    359.1973
   343.5000    -64.6009   -999.2500      4.2024   -999.2500      3.8774   -999.2500    292.5301
   344.0000    -64.6197   -999.2500      4.4127   -999.2500      4.2949   -999.2500    211.1933
   344.5000    -64.8810   -999.2500      4.6301   -999.2500      4.5159   -999.2500    202.4931
   345.0000    -64.9492   -999.2500      4.7061   -999.2500      4.5164   -999.2500    193.8177
   345.5000    -65.0414   -999.2500      4.7170   -999.2500      4.5021   -999.2500    206.6180
   346.0000    -65.1573   -999.2500      4.7845   -999.2500      4.4780   -999.2500    212.6245
   346.5000    -65.3709   -999.2500      4.7861   -999.2500      4.4883   -999.2500    215.8790
   347.0000    -65.5835   -999.2500      4.7880   -999.2500      4.5038   -999.2500    217.8799
   347.5000    -65.7228   -999.2500      4.7900   -999.2500      4.5193   -999.2500    219.3591
   348.0000    -65.7184   -999.2500      4.7172   -999.2500      4.5069   -999.2500    221.0993
   348.5000    -65.7136   -999.2500      4.6334   -999.2500      4.4460   -999.2500    223.8628
   349.0000    -65.7083   -999.2500      4.4980   -999.2500      4.3658   -999.2500    230.1798
   349.5000    -65.7039   -999.2500      4.4628   -999.2500      4.2448   -999.2500    244.1913
   350.0000    -65.6722   -999.2500      4.3279   -999.2500      4.0609     47.2810    272.8321
   350.5000    -65.5487   -999.2500      4.0571   -999.2500      3.9050     46.6724    292.1492
   351.0000    -65.3234   -999.2500      3.6473   -999.2500      3.7538     41.8259    328.4235
   351.5000    -65.1040   -999.2500      3.2761   -999.2500      3.5715     40.9411    359.5087
   352.0000    -64.9536   -999.2500      2.8722   -999.2500      3.3712     44.1148    376.0511
   352.5000    -64.7275   -999.2500      2.6079   -999.2500      3.1411     48.6480    396.9946
   353.0000    -64.5089   -999.2500      2.3403   -999.2500      2.9632     52.1360    411.5699
   353.5000    -64.3586   -999.2500      2.2824   -999.2500      3.0257     53.8855    412.5258
   354.0000    -64.1316   -999.2500      2.4390   -999.2500      3.1250     56.6586    396.9829
   354.5000    -64.0590   -999.2500      2.7955   -999.2500      3.2328     50.5140    383.3055
   355.0000    -64.0538   -999.2500      3.3297   -999.2500      3.3088     45.4734    366.1786
   355.5000    -64.1945   -999.2500      3.7199   -999.2500      3.4187     42.9792    345.9811
   356.0000    -64.3354   -999.2500      4.1280      6.8154      3.7256     37.4079    313.8993
   356.5000    -64.4747   -999.2500      4.5258      6.8003      4.1862     37.3308    265.0725
   357.0000    -64.4702   -999.2500      4.7931      6.8003      4.5019     38.2005    228.0797
   357.5000    -64.6112   -999.2500      4.9194      6.8003      4.6499     45.0381    202.6569
   358.0000    -64.7505   -999.2500      5.0522      6.8003      4.7085     55.6136    193.3781
   358.5000    -64.8258   -999.2500      5.0975      6.7852      4.8247     57.4278    189.3290
   359.0000    -65.0321   -999.2500      5.1493      6.7852      4.9642     51.6891    185.8053
   359.5000    -65.0263   -999.2500      5.2810      6.7852      5.0660     48.0652    188.0487
   360.0000    -65.1669   -999.2500      5.1191      6.7852      5.1455     50.9368    196.5823
   360.5000    -65.3079   -999.2500      4.9466      6.7852      5.0999     51.5422    215.4711
   361.0000    -65.1569   -999.2500      4.6913      6.7852      4.9302     48.0694    241.5429
   361.5000    -65.1524   -999.2500      4.2868      6.7852      4.7577     51.3945    254.1818
   362.0000    -65.0024   -999.2500      3.8338      6.8003      4.3427     58.3447    289.1385
   362.5000    -64.8521   -999.2500      3.5064      6.8003      3.9452     63.3309    328.2195
   363.0000    -64.6203   -999.2500      3.2657      6.7852      3.6642     71.7913    342.5595
   363.5000    -64.3732   -999.2500      3.0412      6.8003      3.4516     65.7505    348.6980
   364.0000    -64.2571   -999.2500      2.8423      6.8003      3.3696     72.0964    352.3019
   364.5000    -64.0244   -999.2500      2.7697      6.8003      3.2883     65.3007    353.0417
   365.0000    -63.8123   -999.2500      2.9439      6.8003      3.2851     63.9427    353.0250
   365.5000    -63.8072   -999.2500      3.1455      6.8003      3.3523     54.7297    351.4975
   366.0000    -63.8865   -999.2500      3.3943      6.8003      3.5761     46.7248    322.9589
   366.5000    -63.9786   -999.2500      3.6696      6.8003      3.7973     45.3672    282.3159
   367.0000    -64.0832   -999.2500      3.9700      6.8003      3.9720     41.8943    245.8664
   367.5000    -64.2235   -999.2500      4.2693      6.8003      4.0811     39.9317    237.4941
   368.0000    -64.3645   -999.2500      4.5199      6.8003      4.2001     54.5862    229.7521
   368.5000    -64.3587   -999.2500      4.7205      6.8003      4.3339     59.2705    223.9458
   369.0000    -64.4993   -999.2500      4.8701      6.8154      4.4549     56.2508    221.4929
   369.5000    -64.4945   -999.2500      4.9461      6.8154      4.5827     57.6118    218.5214
   370.0000    -64.6345   -999.2500      4.9479      6.8154      4.7013     60.5035    215.5999
   370.5000    -64.6299   -999.2500      4.8754      6.8154      4.7840     61.6934    218.1751
   371.0000    -64.6250   -999.2500      4.8028      6.8154      4.6461     58.9759    224.8305
   371.5000    -64.6200   -999.2500      4.6487      6.8154      4.5144     49.0076    232.1408
   372.0000    -64.5283   -999.2500      4.4348      6.8154      4.3393     43.8488    240.2706
   372.5000    -64.4264   -999.2500      4.2292      6.8154      4.0968     47.8021    251.3048
   373.0000    -64.3153   -999.2500      3.9126      6.8154      3.8864     52.1843    265.2729
   373.5000    -64.1654   -999.2500      3.6964      6.8154      3.7607     62.6088    280.7155
