~Version Information
 VERS. 2.0                             : CWLS Log ASCII Standard - Version 2.0
 WRAP. NO                              : One line per depth step
 PROG.                                 : SeisWare LAS Export
#
~Well Information
#MNEM.UNIT     DATA                    : DESCRIPTION
#----.----     ---------               : -----------------
 STRT.F          80.0000               : Start Depth
 STOP.F        1000.0000               : End Depth
 STEP.F           0.5000               : Depth Increment
 NULL.          -999.250               : Null Value
 WELL.         64-S-11                 : Common Well Name
 UWI .         490250634800            : Unique Well ID
 FLD .         Teapot Dome             : Field Name
 PROV.         Wyoming                 : Province / State
#
~Parameter Information
#MNEM.UNIT     VALUE                   : DESCRIPTION
#----.----     ---------               : -----------------
 EREF.F        5221.0000               : Elevation of Depth Reference
 DREF.         KB                      : Depth Reference
 EGL .F        5216.0000               : Ground Level Elevation
 EKB .F        5221.0000               : Kelly Bushing Elevation
#
~Other Information
# SeisWare LAS Export
#
~Curve Information
#MNEM.UNIT        API CODE             : CURVE DESCRIPTION
#----.----        ---------            : -----------------
 DEPT.F                                : Depth
 SPR .MV                               : SPONTANEOUS POTENTIAL FROM RES.
 DT  .US/F                             : INTERVAL TRANSIT TIME
 ILD .OHMM                             : INDUCTION LOG DEEP
 CALS.IN                               : CALIPER FROM SONIC LOG
 ASN .OHMM                             : AMPLIFIED SHORT NORMAL 16"
 GR  .GAPI                             : GAMMA RAY
 CILD.MMHO                             : CONDUCTIVITY INDUCTION LOG DEEP
#
~A     DEPT         SPR          DT         ILD        CALS         ASN          GR        CILD
# ...
   374.0000    -63.9757   -999.2500      3.4886      6.8154      3.6593     61.8550    305.4801
   374.5000    -63.7202   -999.2500      3.3161      6.8154      3.5547     62.7628    311.9798
   375.0000    -63.4817   -999.2500      3.1067      6.8154      3.4797     64.2749    315.4015
   375.5000    -63.2347   -999.2500      3.0769      6.8154      3.4193     63.3528    319.6524
   376.0000    -63.1252   -999.2500      3.0356      6.8154      3.3705     57.6147    327.0124
   376.5000    -63.1205   -999.2500      3.0378      6.8003      3.3178     47.9652    333.5468
   377.0000    -63.1157   -999.2500      3.0394      6.7852      3.2353     50.6486    342.9644
   377.5000    -63.1107   -999.2500      3.0413      6.7700      3.1795     58.7135    348.8324
   378.0000    -63.1060   -999.2500      2.9690      6.7700      3.1260     57.2747    352.9749
   378.5000    -63.1012   -999.2500      2.8962      6.7549      3.0892     54.4667    358.0121
   379.0000    -63.0962   -999.2500      2.8145      6.7549      3.0133     54.6193    366.8816
   379.5000    -63.0915   -999.2500      2.6769      6.7549      2.9046     53.7017    381.5323
   380.0000    -63.0866   -999.2500      2.4950      6.7549      2.7877     45.2567    502.3993
   380.5000    -63.0817   -999.2500      2.2982      6.7549      2.6232     50.7981    548.5842
   381.0000    -63.0770   -999.2500      2.0873      6.7549      2.4599     56.2567    547.0558
   381.5000    -63.0721   -999.2500      1.9401      6.7549      2.3574     58.7055    531.5118
   382.0000    -63.0672   -999.2500      1.9420      6.7549      2.3586     56.0359    504.5700
   382.5000    -63.0624   -999.2500      1.9440      6.7549      2.4021     51.1559    491.9977
   383.0000    -63.0576   -999.2500      2.0571      6.7549      2.4519     51.4595    479.1544
   383.5000    -63.0527   -999.2500      2.1959      6.7700      2.5265     50.2526    464.4112
   384.0000    -63.0479   -999.2500      2.4704      6.7700      2.6717     47.5350    414.9793
   384.5000    -63.0431   -999.2500      2.8856      6.7700      2.8951     37.4157    373.7174
   385.0000    -63.0382   -999.2500      3.5094      6.7852      3.2961     37.7193    313.5407
   385.5000    -63.1277   -999.2500      3.9641      6.7852      3.5812     43.9142    266.3618
   386.0000    -63.1746   -999.2500      3.8522      6.8003      3.6943     48.4474    248.7402
   386.5000    -63.1688   -999.2500      3.7297      6.7852      3.7459     48.6000    252.0517
   387.0000    -63.1640   -999.2500      3.6719      6.7852      3.6871     52.6800    261.7866
   387.5000    -63.3052   -999.2500      3.5590      6.7852      3.6115     54.4942    276.2288
   388.0000    -63.2994   -999.2500      3.4365      6.7852      3.5533     57.3658    301.8089
   388.5000    -63.3906   -999.2500      3.2312      6.7852      3.4805     57.2159    322.8223
   389.0000    -63.4359   -999.2500      3.1171      6.7852      3.3904     56.3110    334.4000
   389.5000    -63.4301   -999.2500      2.9032      6.7852      3.2278     62.3552    346.9530
   390.0000    -63.4243   -999.2500      2.4000      6.7852      3.0209     68.5501    389.4398
   390.5000    -62.9174   -999.2500      2.1792      6.7852      2.9784     75.6513    433.9202
   391.0000    -62.9106   -999.2500      2.0323      6.7852      2.8602     78.0697    463.3176
   391.5000    -62.9051   -999.2500      1.8868      6.7852      2.7303     76.8627    492.0504
   392.0000    -62.8996   -999.2500      1.8151      6.7852      2.5836     77.4685    481.3849
   392.5000    -62.7494   -999.2500      1.8187      6.7852      2.4667     77.6207    460.2545
   393.0000    -62.7419   -999.2500      1.8215      6.7852      2.5729     72.6377    442.8948
   393.5000    -62.4476   -999.2500      1.9733      6.7852      2.9774     71.8839    427.7975
   394.0000    -62.4421   -999.2500      2.1252      6.7852      2.8902     68.4111    406.1019
   394.5000    -62.8707   -999.2500      2.6503      6.7852      2.8620     62.2192    365.1710
   395.0000    -63.0099   -999.2500      3.1003      6.7852      3.0581     57.6890    327.4493
   395.5000    -62.9928   -999.2500      3.6247      6.7852      3.8861     51.9503    278.4154
   396.0000    -62.7081   -999.2500      4.4472      6.7852      4.3426     47.1180    221.0835
   396.5000    -62.5579   -999.2500      4.8971      6.7852      4.4936     45.1558    209.7569
   397.0000    -62.5524   -999.2500      4.7516      6.7852      4.5850     51.5017    203.7094
   397.5000    -62.5373   -999.2500      4.7544      6.7852      4.6764     52.5606    201.4326
   398.0000    -62.5414   -999.2500      4.9808      6.8003      4.7867     58.3023    199.7990
   398.5000    -62.5346   -999.2500      5.1326      6.8003      4.9341     64.7992    196.8755
   399.0000    -62.5291    122.1215      5.3597      6.8003      5.0404     66.1603    193.0905
   399.5000    -62.6697    118.5008      5.3625      6.8003      5.1765     67.3702    187.7971
   400.0000    -62.8075    111.7825      5.4399      6.7999      5.3720     68.8326    182.5038
   400.5000    -62.8007    110.5743      5.5917      6.7978      5.6574     69.4902    177.2068
   401.0000    -62.7952    110.0458      5.6692      6.7957      5.8232     63.6046    172.6676
   401.5000    -62.7897    109.2961      5.8216      6.7936      6.0634     56.9614    169.6367
   402.0000    -62.7842    109.6898      5.8990      6.7915      6.2292     62.1030    168.1141
   402.5000    -62.9234    110.1397      5.9763      6.7894      6.2909     61.5033    168.0995
   403.0000    -62.9165    110.2190      6.0536      6.7873      6.3084     51.8390    167.3277
   403.5000    -62.9110    110.2983      6.0572      6.7852      6.3105     54.7147    168.0676
   404.0000    -62.7608    110.2264      5.9848      6.7700      6.2972     53.9628    168.0532
   404.5000    -62.7553    110.2311      5.9883      6.7549      6.2701     55.7812    170.3014
   405.0000    -62.7496    110.1593      5.9165      6.7549      6.2728     64.0938    171.0412
   405.5000    -62.7430    110.1631      5.7613      6.7549      6.2749     65.9110    171.0233
   406.0000    -62.5927    110.0904      5.6987      6.7398      6.2616     66.9730    171.7667
   406.5000    -62.5872    110.0186      5.7022      6.7247      6.2488     66.0006    173.2571
   407.0000    -62.7265    109.9468      5.7051      6.7095      6.2361     74.9880    173.9969
   407.5000    -62.7196    109.8751      5.7079      6.7095      6.2095     75.6093    174.7368
   408.0000    -62.7141    109.8033      5.7114      6.6944      6.2116     71.2205    175.4766
   408.5000    -62.7086    109.8080      5.7142      6.6944      6.2137     74.6995    176.9706
   409.0000    -62.7031    109.9628      5.7171      6.6944      6.1860     69.1148    178.4645
   409.5000    -62.6975    110.4952      5.6453      6.7095      6.1584     68.9657    179.9549
   410.0000    -62.8355    111.1032      5.6483      6.7398      6.1313     64.1390    179.9370
   410.5000    -63.1194    111.1816      5.7262      6.7549      6.0888     65.9792    179.9227
   411.0000    -63.2600    111.2618      5.7291      6.7852      6.0457     72.9553    179.9084
   411.5000    -63.2531    111.3411      5.7319      6.8003      5.9888     74.5756    179.1399
   412.0000    -63.1027    111.0427      5.7367      6.8154      6.0659     68.9205    177.5266
   412.5000    -62.8066    110.3667      5.8873      6.8306      6.2912     66.7295    174.5828
   413.0000    -62.5117    109.6907      6.0391      6.8457      6.3975     66.4019    170.7978
   413.5000    -62.3615    108.8636      6.2655      6.8457      6.4889     64.7046    167.7669
   414.0000    -62.2113    107.8855      6.4173      6.8457      6.5516     60.0665    163.9818
   414.5000    -62.2044    106.7563      6.7397      6.8457      6.6574     56.4757    158.6849
   415.0000    -62.1989    105.9293      7.0198      6.8457      6.7934     53.4330    154.1457
   415.5000    -62.1934    105.4799      7.0972      6.8457      6.9146     46.9681    150.3606
