~Version Information
 VERS. 2.0                             : CWLS Log ASCII Standard - Version 2.0
 WRAP. NO                              : One line per depth step
 PROG.                                 : SeisWare LAS Export
#
~Well Information
#MNEM.UNIT     DATA                    : DESCRIPTION
#----.----     ---------               : -----------------
 STRT.F          80.0000               : Start Depth
 STOP.F        1000.0000               : End Depth
 STEP.F           0.5000               : Depth Increment
 NULL.          -999.250               : Null Value
 WELL.         64-S-11                 : Common Well Name
 UWI .         490250634800            : Unique Well ID
 FLD .         Teapot Dome             : Field Name
 PROV.         Wyoming                 : Province / State
#
~Parameter Information
#MNEM.UNIT     VALUE                   : DESCRIPTION
#----.----     ---------               : -----------------
 EREF.F        5221.0000               : Elevation of Depth Reference
 DREF.         KB                      : Depth Reference
 EGL .F        5216.0000               : Ground Level Elevation
 EKB .F        5221.0000               : Kelly Bushing Elevation
#
~Other Information
# SeisWare LAS Export
#
~Curve Information
#MNEM.UNIT        API CODE             : CURVE DESCRIPTION
#----.----        ---------            : -----------------
 DEPT.F                                : Depth
 SPR .MV                               : SPONTANEOUS POTENTIAL FROM RES.
 DT  .US/F                             : INTERVAL TRANSIT TIME
 ILD .OHMM                             : INDUCTION LOG DEEP
 CALS.IN                               : CALIPER FROM SONIC LOG
 ASN .OHMM                             : AMPLIFIED SHORT NORMAL 16"
 GR  .GAPI                             : GAMMA RAY
 CILD.MMHO                             : CONDUCTIVITY INDUCTION LOG DEEP
#
~A     DEPT         SPR          DT         ILD        CALS         ASN          GR        CILD
# ...
   500.0000    -56.8618    105.1365      6.4078      6.8456      7.0536     51.9637    152.5469
   500.5000    -56.7789    105.4397      6.5629      6.8419      6.9801     49.3829    153.8330
   501.0000    -56.5604    104.6104      6.4933      6.8339      6.9962     44.2607    154.4948
   501.5000    -56.2597    100.4578      6.3495      6.8259      7.2056     46.8505    154.4420
   502.0000    -56.2485     99.0998      6.3547      6.8179      7.9358     44.8541    154.3787
   502.5000    -56.0926     98.4971      6.4354      6.8154      7.8475     42.7313    154.3276
   503.0000    -55.4858     97.8943      6.5150      6.8154      7.6253     38.7824    154.2765
   503.5000    -55.1990     97.1405      6.5945      6.8306      8.0879     36.8686    154.2254
   504.0000    -55.6220     97.0866      6.5251      6.8306      7.7317     58.0721    154.1742
   504.5000    -55.9002    100.2402      6.4544      6.8154      7.2268     69.0468    154.1231
   505.0000    -56.0365    101.2236      6.3860      6.7852      6.9897     67.2356    157.8427
   505.5000    -56.1700    100.8475      6.3167      6.7549      6.9607     68.9967    160.0540
   506.0000    -56.3010    100.0937      6.2473      6.7398      7.0215     79.0211    159.2360
   506.5000    -56.4375    100.2462      6.3282      6.7095      7.0969     74.1496    158.4307
   507.0000    -56.4226    100.7764      6.4077      6.6944      7.1277     73.7371    158.3796
   507.5000    -56.2643    101.0801      6.4128      6.7095      7.1438     72.4394    157.5743
   508.0000    -56.2531    101.1571      6.4924      6.7549      7.1297     71.4743    156.7690
   508.5000    -56.2418    101.3096      6.6465      6.7852      7.0863     76.0246    155.9637
   509.0000    -56.2306    101.4688      6.8006      6.8306      7.0424     74.4258    155.1584
   509.5000    -56.2194    101.6148      6.9547      6.8457      6.9988     71.7769    155.0022
   510.0000    -56.2082    101.1430      7.0343      6.8608      7.0596     62.9000    153.5351
   510.5000    -56.1968    100.4612      7.0395      6.8457      7.1796     60.2613    152.7299
   511.0000    -56.1830     99.9441      7.1202      6.8306      7.2713     60.9135    151.9246
   511.5000    -56.1718     99.3553      7.0495      6.8306      7.3951     64.6872    151.1193
   512.0000    -56.1605     99.1298      7.0558      6.8154      7.5103     65.7828    151.0682
   512.5000    -56.0046     99.7359      6.9851      6.8154      7.4667     65.2442    151.0128
   513.0000    -55.8487    100.4927      6.8424      6.8154      7.3040     63.9365    154.7324
   513.5000    -55.5480    101.4761      6.7717      6.8154      7.0967     63.8836    159.2061
   514.0000    -55.3921    102.6105      6.5545      6.8154      6.8149     61.0795    162.9258
   514.5000    -55.6703    103.5184      6.4105      6.8154      6.6820     59.0489    165.2137
   515.0000    -55.6563    104.4262      6.2666      6.8154      6.5932     56.0879    168.1025
   515.5000    -55.7926    105.1075      6.1971      6.8306      6.5180     56.9958    170.3011
   516.0000    -55.9261    105.6377      5.9799      6.8306      6.4472     59.8674    171.7710
   516.5000    -56.0596    105.7143      5.9092      6.8306      6.4033     70.1408    173.9695
   517.0000    -56.0456    105.4141      5.7665      6.8306      6.4046     69.6891    174.6853
   517.5000    -55.8897    105.0380      5.6958      6.8306      6.4056     67.5758    176.1297
   518.0000    -55.5871    105.1150      5.5531      6.8306      6.4364     65.4625    176.0784
   518.5000    -55.4327    105.4941      5.5581      6.8306      6.4671     66.8232    176.0257
   519.0000    -55.7085    105.9488      5.4887      6.8154      6.4979     65.9183    176.7305
   519.5000    -55.9896    106.4035      5.4950      6.8154      6.4671     67.7329    177.4335
   520.0000    -55.9755    106.7071      5.5746      6.8154      6.3811     68.4897    178.1365
   520.5000    -55.8196    107.0107      5.6542      6.8154      6.3077     66.0743    177.3185
   521.0000    -55.8084    107.3143      5.7338      6.8154      6.2343     56.5592    176.5132
   521.5000    -55.6525    107.6180      5.8879      6.8154      6.1758     63.8114    174.9538
   522.0000    -55.4963    107.7701      5.9675      6.8154      6.1768     68.9489    173.3533
   522.5000    -55.3378    106.8657      6.1961      6.8154      6.3415     77.1075    169.5597
   523.0000    -55.1819    106.1119      6.3502      6.8154      6.5512     77.2601    165.7378
   523.5000    -55.1707    105.5091      6.5157      6.8003      6.7046     74.6936    161.9160
   524.0000    -55.1594    104.9819      6.7342      6.8003      6.8508     70.9187    158.8482
   524.5000    -55.0035    104.6058      6.8883      6.8003      6.9411     67.8990    156.5347
   525.0000    -54.9923    104.2297      7.0424      6.8003      7.0165     64.5773    154.2211
   525.5000    -54.9811    103.9291      7.1219      6.7852      7.0621     61.7087    151.9075
   526.0000    -54.9696    103.6284      7.1270      6.7852      7.0929     63.3718    151.1010
   526.5000    -54.9559    103.4034      7.1321      6.7852      7.1237     61.1075    151.8053
   527.0000    -55.0894    103.6314      7.0626      6.8003      7.1396     55.5199    151.7413
   527.5000    -55.0781    103.6404      6.9871      6.8003      7.1222     54.0108    153.1985
   528.0000    -55.2145    103.6303      6.7760      6.8003      7.0377     53.5591    154.6685
   528.5000    -55.3480    104.3157      6.5575      6.8003      6.9792     54.6181    157.6212
   529.0000    -55.4791    105.0755      6.3390      6.8003      6.8909     58.2449    160.5866
   529.5000    -55.6127    105.9146      6.1205      6.8003      6.7877     54.7721    163.5547
   530.0000    -55.7457    106.5206      5.7530      6.8003      6.7144     59.0033    166.6165
   530.5000    -55.4422    106.6631      5.5346      6.8003      6.6112     62.6298    169.4702
   531.0000    -55.1416    106.3625      5.4650      6.8003      6.5229     60.5165    170.9274
   531.5000    -55.1304    106.4499      5.5447      6.8003      6.5239     64.8990    170.1221
   532.0000    -55.1191    106.7552      5.7089      6.7852      6.5550     72.1513    168.5627
   532.5000    -54.9632    106.8958      5.9287      6.7852      6.5708     73.6634    165.4950
   533.0000    -54.9520    106.5955      6.1573      6.7700      6.6165     72.1543    162.4272
   533.5000    -54.9407    105.5396      6.3859      6.7700      6.6622     74.1195    160.0808
   534.0000    -54.7821    104.4837      6.6890      6.7549      6.7525     75.3291    156.2790
   534.5000    -54.6261    103.3522      6.9922      6.7549      6.9023     66.8718    153.2113
   535.0000    -54.7596    102.3719      7.1463      6.7549      7.0819     57.6588    150.1436
   535.5000    -54.7484    101.4670      7.3004      6.7549      7.3439     56.6029    147.0759
   536.0000    -54.8847    100.1845      7.4546      6.7549      7.6347     51.9216    144.0081
   536.5000    -55.1601     99.2042      7.3863      6.7549      7.7101     47.8446    140.9404
   537.0000    -55.4384     98.6766      7.3168      6.7549      7.6811     43.7676    141.6434
   537.5000    -55.7284     99.3582      7.0984      6.7549      7.7122     49.2071    143.8548
   538.0000    -55.9948    100.0395      6.9531      6.7700      7.7876     53.2872    146.0533
   538.5000    -56.1283    100.8718      6.7359      6.7700      7.7588     50.2676    148.2646
   539.0000    -56.1143    101.6286      6.5174      6.7852      7.5961     47.0965    151.2301
   539.5000    -56.1031    102.2343      6.2990      6.7852      7.4152     53.2917    154.9497
   540.0000    -56.0919    103.0666      6.0805      6.7852      7.1520     62.5074    157.9151
   540.5000    -56.0807    104.2011      5.7875      6.8003      6.9149     60.8472    162.3889
   541.0000    -55.9247    104.8823      5.5703      6.8003      6.7969     65.8340    165.3544
   541.5000    -55.7685    105.5636      5.5753      6.8003      6.6639     70.9715    169.9200
